SNo,Date,Country,RegionCode,RegionName,ProvinceCode,ProvinceName,ProvinceAbbreviation,Latitude,Longitude,TotalPositiveCases,
0,24-02-2020 18:00,ITA,13,Abruzzo,69,Chieti,CH,42.35103167,14.16754574,0,
1,24-02-2020 18:00,ITA,13,Abruzzo,66,L'Aquila,AQ,42.35122196,13.39843823,0,
2,24-02-2020 18:00,ITA,13,Abruzzo,68,Pescara,PE,42.46458398,14.21364822,0,
3,24-02-2020 18:00,ITA,13,Abruzzo,67,Teramo,TE,42.6589177,13.70439971,0,
4,24-02-2020 18:00,ITA,13,Abruzzo,979,In fase di definizione/aggiornamento,,0,0,0,
5,24-02-2020 18:00,ITA,17,Basilicata,77,Matera,MT,40.66751177,16.59792442,0,
6,24-02-2020 18:00,ITA,17,Basilicata,76,Potenza,PZ,40.63947052,15.80514834,0,
7,24-02-2020 18:00,ITA,17,Basilicata,980,In fase di definizione/aggiornamento,,0,0,0,
8,24-02-2020 18:00,ITA,4,P.A. Bolzano,21,Bolzano,BZ,46.49933453,11.35662422,0,
9,24-02-2020 18:00,ITA,4,P.A. Bolzano,981,In fase di definizione/aggiornamento,,0,0,0,
10,24-02-2020 18:00,ITA,18,Calabria,79,Catanzaro,CZ,38.90597598,16.59440194,0,
11,24-02-2020 18:00,ITA,18,Calabria,78,Cosenza,CS,39.29308681,16.25609692,0,
12,24-02-2020 18:00,ITA,18,Calabria,101,Crotone,KR,39.08036878,17.12538864,0,
13,24-02-2020 18:00,ITA,18,Calabria,80,Reggio di Calabria,RC,38.10922769,15.6434527,0,
14,24-02-2020 18:00,ITA,18,Calabria,102,Vibo Valentia,VV,38.67624147,16.10157414,0,
15,24-02-2020 18:00,ITA,18,Calabria,982,In fase di definizione/aggiornamento,,0,0,0,
16,24-02-2020 18:00,ITA,15,Campania,64,Avellino,AV,40.91404699,14.79528803,0,
17,24-02-2020 18:00,ITA,15,Campania,62,Benevento,BN,41.12969987,14.78151683,0,
18,24-02-2020 18:00,ITA,15,Campania,61,Caserta,CE,41.07465878,14.33240464,0,
19,24-02-2020 18:00,ITA,15,Campania,63,Napoli,,40.83956555,14.25084984,0,
20,24-02-2020 18:00,ITA,15,Campania,65,Salerno,SA,40.67821961,14.7594026,0,
21,24-02-2020 18:00,ITA,15,Campania,983,In fase di definizione/aggiornamento,,0,0,0,
22,24-02-2020 18:00,ITA,8,Emilia Romagna,37,Bologna,BO,44.49436681,11.3417208,0,
23,24-02-2020 18:00,ITA,8,Emilia Romagna,38,Ferrara,FE,44.83599085,11.61868934,0,
24,24-02-2020 18:00,ITA,8,Emilia Romagna,40,Forlì-Cesena,FC,44.22268559,12.04068608,0,
25,24-02-2020 18:00,ITA,8,Emilia Romagna,36,Modena,MO,44.64600009,10.92615487,0,
26,24-02-2020 18:00,ITA,8,Emilia Romagna,34,Parma,PR,44.80107394,10.32834985,0,
27,24-02-2020 18:00,ITA,8,Emilia Romagna,33,Piacenza,PC,45.05193462,9.692632596,0,
28,24-02-2020 18:00,ITA,8,Emilia Romagna,39,Ravenna,RA,44.41722493,12.19913936,0,
29,24-02-2020 18:00,ITA,8,Emilia Romagna,35,Reggio nell'Emilia,RE,44.69735289,10.63007973,0,
30,24-02-2020 18:00,ITA,8,Emilia Romagna,99,Rimini,RN,44.06090087,12.5656295,0,
31,24-02-2020 18:00,ITA,8,Emilia Romagna,984,In fase di definizione/aggiornamento,,0,0,0,
32,24-02-2020 18:00,ITA,6,Friuli Venezia Giulia,31,Gorizia,GO,45.94149817,13.62212502,0,
33,24-02-2020 18:00,ITA,6,Friuli Venezia Giulia,93,Pordenone,PN,45.95443546,12.66002909,0,
34,24-02-2020 18:00,ITA,6,Friuli Venezia Giulia,32,Trieste,TS,45.6494354,13.76813649,0,
35,24-02-2020 18:00,ITA,6,Friuli Venezia Giulia,30,Udine,UD,46.06255516,13.2348383,0,
36,24-02-2020 18:00,ITA,6,Friuli Venezia Giulia,985,In fase di definizione/aggiornamento,,0,0,0,
37,24-02-2020 18:00,ITA,12,Lazio,60,Frosinone,FR,41.63964569,13.35117161,0,
38,24-02-2020 18:00,ITA,12,Lazio,59,Latina,LT,41.46759465,12.90368482,0,
39,24-02-2020 18:00,ITA,12,Lazio,57,Rieti,RI,42.40488444,12.86205939,0,
40,24-02-2020 18:00,ITA,12,Lazio,58,Roma,RM,41.89277044,12.48366722,0,
41,24-02-2020 18:00,ITA,12,Lazio,56,Viterbo,VT,42.4173828,12.10473416,0,
42,24-02-2020 18:00,ITA,12,Lazio,986,In fase di definizione/aggiornamento,,0,0,0,
43,24-02-2020 18:00,ITA,7,Liguria,10,Genova,GE,44.41149314,8.9326992,0,
44,24-02-2020 18:00,ITA,7,Liguria,8,Imperia,IM,43.88570648,8.027850298,0,
45,24-02-2020 18:00,ITA,7,Liguria,11,La Spezia,SP,44.10704991,9.8281897,0,
46,24-02-2020 18:00,ITA,7,Liguria,9,Savona,SV,44.30750461,8.481108654,0,
47,24-02-2020 18:00,ITA,7,Liguria,987,In fase di definizione/aggiornamento,,0,0,0,
48,24-02-2020 18:00,ITA,3,Lombardia,16,Bergamo,BG,45.69441368,9.668424528,0,
49,24-02-2020 18:00,ITA,3,Lombardia,17,Brescia,BS,45.53993052,10.21910323,0,
50,24-02-2020 18:00,ITA,3,Lombardia,13,Como,CO,45.8099912,9.085159546,0,
51,24-02-2020 18:00,ITA,3,Lombardia,19,Cremona,CR,45.13336675,10.02420865,0,
52,24-02-2020 18:00,ITA,3,Lombardia,97,Lecco,LC,45.85575781,9.393392246,0,
53,24-02-2020 18:00,ITA,3,Lombardia,98,Lodi,LO,45.31440693,9.503720769,0,
54,24-02-2020 18:00,ITA,3,Lombardia,20,Mantova,MN,45.15726772,10.79277363,0,
55,24-02-2020 18:00,ITA,3,Lombardia,15,Milano,MI,45.46679409,9.190347404,0,
56,24-02-2020 18:00,ITA,3,Lombardia,108,Monza e della Brianza,MB,45.58439043,9.273582472,0,
57,24-02-2020 18:00,ITA,3,Lombardia,18,Pavia,PV,45.18509264,9.160157191,0,
58,24-02-2020 18:00,ITA,3,Lombardia,14,Sondrio,SO,46.17099261,9.87147489,0,
59,24-02-2020 18:00,ITA,3,Lombardia,12,Varese,VA,45.81701677,8.822868344,0,
60,24-02-2020 18:00,ITA,3,Lombardia,988,In fase di definizione/aggiornamento,,0,0,0,
61,24-02-2020 18:00,ITA,11,Marche,42,Ancona,AN,43.61675973,13.5188753,0,
62,24-02-2020 18:00,ITA,11,Marche,44,Ascoli Piceno,AP,42.85322304,13.57691127,0,
63,24-02-2020 18:00,ITA,11,Marche,109,Fermo,FM,43.16058534,13.71839535,0,
64,24-02-2020 18:00,ITA,11,Marche,43,Macerata,MC,43.30023926,13.45307182,0,
65,24-02-2020 18:00,ITA,11,Marche,41,Pesaro e Urbino,PU,43.91014021,12.91345989,0,
66,24-02-2020 18:00,ITA,11,Marche,989,In fase di definizione/aggiornamento,,0,0,0,
67,24-02-2020 18:00,ITA,14,Molise,70,Campobasso,CB,41.55774754,14.65916051,0,
68,24-02-2020 18:00,ITA,14,Molise,94,Isernia,IS,41.58800826,14.22575407,0,
69,24-02-2020 18:00,ITA,14,Molise,990,In fase di definizione/aggiornamento,,0,0,0,
70,24-02-2020 18:00,ITA,1,Piemonte,6,Alessandria,AL,44.91297351,8.615401155,0,
71,24-02-2020 18:00,ITA,1,Piemonte,5,Asti,AT,44.89912921,8.204142547,0,
72,24-02-2020 18:00,ITA,1,Piemonte,96,Biella,BI,45.5665112,8.054082167,0,
73,24-02-2020 18:00,ITA,1,Piemonte,4,Cuneo,CN,44.39329625,7.551171632,0,
74,24-02-2020 18:00,ITA,1,Piemonte,3,Novara,NO,45.44588506,8.621915884,0,
75,24-02-2020 18:00,ITA,1,Piemonte,1,Torino,TO,45.0732745,7.680687483,0,
76,24-02-2020 18:00,ITA,1,Piemonte,103,Verbano-Cusio-Ossola,VB,45.9214455,8.551078753,0,
77,24-02-2020 18:00,ITA,1,Piemonte,2,Vercelli,VC,45.32398135,8.423234312,0,
78,24-02-2020 18:00,ITA,1,Piemonte,991,In fase di definizione/aggiornamento,,0,0,0,
79,24-02-2020 18:00,ITA,16,Puglia,72,Bari,BA,41.12559576,16.86736689,0,
80,24-02-2020 18:00,ITA,16,Puglia,110,Barletta-Andria-Trani,BT,41.22705039,16.29520432,0,
81,24-02-2020 18:00,ITA,16,Puglia,74,Brindisi,BR,40.63848545,17.94601575,0,
82,24-02-2020 18:00,ITA,16,Puglia,71,Foggia,FG,41.46226865,15.54305094,0,
83,24-02-2020 18:00,ITA,16,Puglia,75,Lecce,LE,40.35354285,18.1718973,0,
84,24-02-2020 18:00,ITA,16,Puglia,73,Taranto,TA,40.47354739,17.23237181,0,
85,24-02-2020 18:00,ITA,16,Puglia,992,In fase di definizione/aggiornamento,,0,0,0,
86,24-02-2020 18:00,ITA,20,Sardegna,92,Cagliari,CA,39.21531192,9.110616306,0,
87,24-02-2020 18:00,ITA,20,Sardegna,91,Nuoro,NU,40.32318834,9.330296393,0,
88,24-02-2020 18:00,ITA,20,Sardegna,95,Oristano,OR,39.90381075,8.591183151,0,
89,24-02-2020 18:00,ITA,20,Sardegna,90,Sassari,SS,40.72667657,8.559667131,0,
90,24-02-2020 18:00,ITA,20,Sardegna,111,Sud Sardegna,SU,39.16641462,8.526242676,0,
91,24-02-2020 18:00,ITA,20,Sardegna,993,In fase di definizione/aggiornamento,,0,0,0,
92,24-02-2020 18:00,ITA,19,Sicilia,84,Agrigento,AG,37.30971088,13.5845749,0,
93,24-02-2020 18:00,ITA,19,Sicilia,85,Caltanissetta,CL,37.49213171,14.06184973,0,
94,24-02-2020 18:00,ITA,19,Sicilia,87,Catania,CT,37.50287803,15.08704691,0,
95,24-02-2020 18:00,ITA,19,Sicilia,86,Enna,EN,37.56705701,14.27909375,0,
96,24-02-2020 18:00,ITA,19,Sicilia,83,Messina,ME,38.19395845,15.55572302,0,
97,24-02-2020 18:00,ITA,19,Sicilia,82,Palermo,PA,38.11569725,13.3623567,0,
98,24-02-2020 18:00,ITA,19,Sicilia,88,Ragusa,RG,36.92509198,14.73069891,0,
99,24-02-2020 18:00,ITA,19,Sicilia,89,Siracusa,SR,37.05991687,15.29333182,0,
100,24-02-2020 18:00,ITA,19,Sicilia,81,Trapani,TP,38.01850065,12.51365684,0,
101,24-02-2020 18:00,ITA,19,Sicilia,994,In fase di definizione/aggiornamento,,0,0,0,
102,24-02-2020 18:00,ITA,9,Toscana,51,Arezzo,AR,43.46642752,11.88228844,0,
103,24-02-2020 18:00,ITA,9,Toscana,48,Firenze,FI,43.76923077,11.25588885,0,
104,24-02-2020 18:00,ITA,9,Toscana,53,Grosseto,GR,42.76026758,11.11356398,0,
105,24-02-2020 18:00,ITA,9,Toscana,49,Livorno,LI,43.55234873,10.3086781,0,
106,24-02-2020 18:00,ITA,9,Toscana,46,Lucca,LU,43.84432283,10.50151366,0,
107,24-02-2020 18:00,ITA,9,Toscana,45,Massa Carrara,MS,44.03674425,10.14173829,0,
108,24-02-2020 18:00,ITA,9,Toscana,50,Pisa,PI,43.71553206,10.40127259,0,
109,24-02-2020 18:00,ITA,9,Toscana,47,Pistoia,PT,43.933465,10.91734146,0,
110,24-02-2020 18:00,ITA,9,Toscana,100,Prato,PO,43.88062274,11.09703315,0,
111,24-02-2020 18:00,ITA,9,Toscana,52,Siena,SI,43.31816374,11.33190988,0,
112,24-02-2020 18:00,ITA,9,Toscana,995,In fase di definizione/aggiornamento,,0,0,0,
113,24-02-2020 18:00,ITA,4,P.A. Trento,22,Trento,TN,46.06893511,11.12123097,0,
114,24-02-2020 18:00,ITA,4,P.A. Trento,996,In fase di definizione/aggiornamento,,0,0,0,
115,24-02-2020 18:00,ITA,10,Umbria,54,Perugia,PG,43.10675841,12.38824698,0,
116,24-02-2020 18:00,ITA,10,Umbria,55,Terni,TR,42.56071258,12.6466875,0,
117,24-02-2020 18:00,ITA,10,Umbria,997,In fase di definizione/aggiornamento,,0,0,0,
118,24-02-2020 18:00,ITA,2,Valle d'Aosta,7,Aosta,AO,45.73750286,7.320149366,0,
119,24-02-2020 18:00,ITA,2,Valle d'Aosta,998,In fase di definizione/aggiornamento,,0,0,0,
120,24-02-2020 18:00,ITA,5,Veneto,25,Belluno,BL,46.13837528,12.21704167,0,
121,24-02-2020 18:00,ITA,5,Veneto,28,Padova,PD,45.40692987,11.87608718,0,
122,24-02-2020 18:00,ITA,5,Veneto,29,Rovigo,RO,45.07107289,11.79007,0,
123,24-02-2020 18:00,ITA,5,Veneto,26,Treviso,TV,45.66754571,12.24507363,0,
124,24-02-2020 18:00,ITA,5,Veneto,27,Venezia,VE,45.43490485,12.33845213,0,
125,24-02-2020 18:00,ITA,5,Veneto,23,Verona,VR,45.43839046,10.99352685,0,
126,24-02-2020 18:00,ITA,5,Veneto,24,Vicenza,VI,45.547497,11.54597109,0,
127,24-02-2020 18:00,ITA,5,Veneto,999,In fase di definizione/aggiornamento,,0,0,0,
128,25-02-2020 18:00,ITA,13,Abruzzo,69,Chieti,CH,42.35103167,14.16754574,0,
129,25-02-2020 18:00,ITA,13,Abruzzo,66,L'Aquila,AQ,42.35122196,13.39843823,0,
130,25-02-2020 18:00,ITA,13,Abruzzo,68,Pescara,PE,42.46458398,14.21364822,0,
131,25-02-2020 18:00,ITA,13,Abruzzo,67,Teramo,TE,42.6589177,13.70439971,0,
132,25-02-2020 18:00,ITA,13,Abruzzo,979,In fase di definizione/aggiornamento,,0,0,0,
133,25-02-2020 18:00,ITA,17,Basilicata,77,Matera,MT,40.66751177,16.59792442,0,
134,25-02-2020 18:00,ITA,17,Basilicata,76,Potenza,PZ,40.63947052,15.80514834,0,
135,25-02-2020 18:00,ITA,17,Basilicata,980,In fase di definizione/aggiornamento,,0,0,0,
136,25-02-2020 18:00,ITA,4,P.A. Bolzano,21,Bolzano,BZ,46.49933453,11.35662422,1,
137,25-02-2020 18:00,ITA,4,P.A. Bolzano,981,In fase di definizione/aggiornamento,,0,0,0,
138,25-02-2020 18:00,ITA,18,Calabria,79,Catanzaro,CZ,38.90597598,16.59440194,0,
139,25-02-2020 18:00,ITA,18,Calabria,78,Cosenza,CS,39.29308681,16.25609692,0,
140,25-02-2020 18:00,ITA,18,Calabria,101,Crotone,KR,39.08036878,17.12538864,0,
141,25-02-2020 18:00,ITA,18,Calabria,80,Reggio di Calabria,RC,38.10922769,15.6434527,0,
142,25-02-2020 18:00,ITA,18,Calabria,102,Vibo Valentia,VV,38.67624147,16.10157414,0,
143,25-02-2020 18:00,ITA,18,Calabria,982,In fase di definizione/aggiornamento,,0,0,0,
144,25-02-2020 18:00,ITA,15,Campania,64,Avellino,AV,40.91404699,14.79528803,0,
145,25-02-2020 18:00,ITA,15,Campania,62,Benevento,BN,41.12969987,14.78151683,0,
146,25-02-2020 18:00,ITA,15,Campania,61,Caserta,CE,41.07465878,14.33240464,0,
147,25-02-2020 18:00,ITA,15,Campania,63,Napoli,,40.83956555,14.25084984,0,
148,25-02-2020 18:00,ITA,15,Campania,65,Salerno,SA,40.67821961,14.7594026,0,
149,25-02-2020 18:00,ITA,15,Campania,983,In fase di definizione/aggiornamento,,0,0,0,
150,25-02-2020 18:00,ITA,8,Emilia Romagna,37,Bologna,BO,44.49436681,11.3417208,0,
151,25-02-2020 18:00,ITA,8,Emilia Romagna,38,Ferrara,FE,44.83599085,11.61868934,0,
152,25-02-2020 18:00,ITA,8,Emilia Romagna,40,Forlì-Cesena,FC,44.22268559,12.04068608,0,
153,25-02-2020 18:00,ITA,8,Emilia Romagna,36,Modena,MO,44.64600009,10.92615487,3,
154,25-02-2020 18:00,ITA,8,Emilia Romagna,34,Parma,PR,44.80107394,10.32834985,4,
155,25-02-2020 18:00,ITA,8,Emilia Romagna,33,Piacenza,PC,45.05193462,9.692632596,18,
156,25-02-2020 18:00,ITA,8,Emilia Romagna,39,Ravenna,RA,44.41722493,12.19913936,0,
157,25-02-2020 18:00,ITA,8,Emilia Romagna,35,Reggio nell'Emilia,RE,44.69735289,10.63007973,0,
158,25-02-2020 18:00,ITA,8,Emilia Romagna,99,Rimini,RN,44.06090087,12.5656295,1,
159,25-02-2020 18:00,ITA,8,Emilia Romagna,984,In fase di definizione/aggiornamento,,0,0,0,
160,25-02-2020 18:00,ITA,6,Friuli Venezia Giulia,31,Gorizia,GO,45.94149817,13.62212502,0,
161,25-02-2020 18:00,ITA,6,Friuli Venezia Giulia,93,Pordenone,PN,45.95443546,12.66002909,0,
162,25-02-2020 18:00,ITA,6,Friuli Venezia Giulia,32,Trieste,TS,45.6494354,13.76813649,0,
163,25-02-2020 18:00,ITA,6,Friuli Venezia Giulia,30,Udine,UD,46.06255516,13.2348383,0,
164,25-02-2020 18:00,ITA,6,Friuli Venezia Giulia,985,In fase di definizione/aggiornamento,,0,0,0,
165,25-02-2020 18:00,ITA,12,Lazio,60,Frosinone,FR,41.63964569,13.35117161,0,
166,25-02-2020 18:00,ITA,12,Lazio,59,Latina,LT,41.46759465,12.90368482,0,
167,25-02-2020 18:00,ITA,12,Lazio,57,Rieti,RI,42.40488444,12.86205939,0,
168,25-02-2020 18:00,ITA,12,Lazio,58,Roma,RM,41.89277044,12.48366722,3,
169,25-02-2020 18:00,ITA,12,Lazio,56,Viterbo,VT,42.4173828,12.10473416,0,
170,25-02-2020 18:00,ITA,12,Lazio,986,In fase di definizione/aggiornamento,,0,0,0,
171,25-02-2020 18:00,ITA,7,Liguria,10,Genova,GE,44.41149314,8.9326992,0,
172,25-02-2020 18:00,ITA,7,Liguria,8,Imperia,IM,43.88570648,8.027850298,0,
173,25-02-2020 18:00,ITA,7,Liguria,11,La Spezia,SP,44.10704991,9.8281897,0,
174,25-02-2020 18:00,ITA,7,Liguria,9,Savona,SV,44.30750461,8.481108654,1,
175,25-02-2020 18:00,ITA,7,Liguria,987,In fase di definizione/aggiornamento,,0,0,0,
176,25-02-2020 18:00,ITA,3,Lombardia,16,Bergamo,BG,45.69441368,9.668424528,18,
177,25-02-2020 18:00,ITA,3,Lombardia,17,Brescia,BS,45.53993052,10.21910323,0,
178,25-02-2020 18:00,ITA,3,Lombardia,13,Como,CO,45.8099912,9.085159546,0,
179,25-02-2020 18:00,ITA,3,Lombardia,19,Cremona,CR,45.13336675,10.02420865,53,
180,25-02-2020 18:00,ITA,3,Lombardia,97,Lecco,LC,45.85575781,9.393392246,0,
181,25-02-2020 18:00,ITA,3,Lombardia,98,Lodi,LO,45.31440693,9.503720769,125,
182,25-02-2020 18:00,ITA,3,Lombardia,20,Mantova,MN,45.15726772,10.79277363,0,
183,25-02-2020 18:00,ITA,3,Lombardia,15,Milano,MI,45.46679409,9.190347404,8,
184,25-02-2020 18:00,ITA,3,Lombardia,108,Monza e della Brianza,MB,45.58439043,9.273582472,3,
185,25-02-2020 18:00,ITA,3,Lombardia,18,Pavia,PV,45.18509264,9.160157191,27,
186,25-02-2020 18:00,ITA,3,Lombardia,14,Sondrio,SO,46.17099261,9.87147489,1,
187,25-02-2020 18:00,ITA,3,Lombardia,12,Varese,VA,45.81701677,8.822868344,0,
188,25-02-2020 18:00,ITA,3,Lombardia,988,In fase di definizione/aggiornamento,,0,0,5,
189,25-02-2020 18:00,ITA,11,Marche,42,Ancona,AN,43.61675973,13.5188753,0,
190,25-02-2020 18:00,ITA,11,Marche,44,Ascoli Piceno,AP,42.85322304,13.57691127,0,
191,25-02-2020 18:00,ITA,11,Marche,109,Fermo,FM,43.16058534,13.71839535,0,
192,25-02-2020 18:00,ITA,11,Marche,43,Macerata,MC,43.30023926,13.45307182,0,
193,25-02-2020 18:00,ITA,11,Marche,41,Pesaro e Urbino,PU,43.91014021,12.91345989,0,
194,25-02-2020 18:00,ITA,11,Marche,989,In fase di definizione/aggiornamento,,0,0,0,
195,25-02-2020 18:00,ITA,14,Molise,70,Campobasso,CB,41.55774754,14.65916051,0,
196,25-02-2020 18:00,ITA,14,Molise,94,Isernia,IS,41.58800826,14.22575407,0,
197,25-02-2020 18:00,ITA,14,Molise,990,In fase di definizione/aggiornamento,,0,0,0,
198,25-02-2020 18:00,ITA,1,Piemonte,6,Alessandria,AL,44.91297351,8.615401155,0,
199,25-02-2020 18:00,ITA,1,Piemonte,5,Asti,AT,44.89912921,8.204142547,0,
200,25-02-2020 18:00,ITA,1,Piemonte,96,Biella,BI,45.5665112,8.054082167,0,
201,25-02-2020 18:00,ITA,1,Piemonte,4,Cuneo,CN,44.39329625,7.551171632,0,
202,25-02-2020 18:00,ITA,1,Piemonte,3,Novara,NO,45.44588506,8.621915884,0,
203,25-02-2020 18:00,ITA,1,Piemonte,1,Torino,TO,45.0732745,7.680687483,3,
204,25-02-2020 18:00,ITA,1,Piemonte,103,Verbano-Cusio-Ossola,VB,45.9214455,8.551078753,0,
205,25-02-2020 18:00,ITA,1,Piemonte,2,Vercelli,VC,45.32398135,8.423234312,0,
206,25-02-2020 18:00,ITA,1,Piemonte,991,In fase di definizione/aggiornamento,,0,0,0,
207,25-02-2020 18:00,ITA,16,Puglia,72,Bari,BA,41.12559576,16.86736689,0,
208,25-02-2020 18:00,ITA,16,Puglia,110,Barletta-Andria-Trani,BT,41.22705039,16.29520432,0,
209,25-02-2020 18:00,ITA,16,Puglia,74,Brindisi,BR,40.63848545,17.94601575,0,
210,25-02-2020 18:00,ITA,16,Puglia,71,Foggia,FG,41.46226865,15.54305094,0,
211,25-02-2020 18:00,ITA,16,Puglia,75,Lecce,LE,40.35354285,18.1718973,0,
212,25-02-2020 18:00,ITA,16,Puglia,73,Taranto,TA,40.47354739,17.23237181,0,
213,25-02-2020 18:00,ITA,16,Puglia,992,In fase di definizione/aggiornamento,,0,0,0,
214,25-02-2020 18:00,ITA,20,Sardegna,92,Cagliari,CA,39.21531192,9.110616306,0,
215,25-02-2020 18:00,ITA,20,Sardegna,91,Nuoro,NU,40.32318834,9.330296393,0,
216,25-02-2020 18:00,ITA,20,Sardegna,95,Oristano,OR,39.90381075,8.591183151,0,
217,25-02-2020 18:00,ITA,20,Sardegna,90,Sassari,SS,40.72667657,8.559667131,0,
218,25-02-2020 18:00,ITA,20,Sardegna,111,Sud Sardegna,SU,39.16641462,8.526242676,0,
219,25-02-2020 18:00,ITA,20,Sardegna,993,In fase di definizione/aggiornamento,,0,0,0,
220,25-02-2020 18:00,ITA,19,Sicilia,84,Agrigento,AG,37.30971088,13.5845749,0,
221,25-02-2020 18:00,ITA,19,Sicilia,85,Caltanissetta,CL,37.49213171,14.06184973,0,
222,25-02-2020 18:00,ITA,19,Sicilia,87,Catania,CT,37.50287803,15.08704691,0,
223,25-02-2020 18:00,ITA,19,Sicilia,86,Enna,EN,37.56705701,14.27909375,0,
224,25-02-2020 18:00,ITA,19,Sicilia,83,Messina,ME,38.19395845,15.55572302,0,
225,25-02-2020 18:00,ITA,19,Sicilia,82,Palermo,PA,38.11569725,13.3623567,3,
226,25-02-2020 18:00,ITA,19,Sicilia,88,Ragusa,RG,36.92509198,14.73069891,0,
227,25-02-2020 18:00,ITA,19,Sicilia,89,Siracusa,SR,37.05991687,15.29333182,0,
228,25-02-2020 18:00,ITA,19,Sicilia,81,Trapani,TP,38.01850065,12.51365684,0,
229,25-02-2020 18:00,ITA,19,Sicilia,994,In fase di definizione/aggiornamento,,0,0,0,
230,25-02-2020 18:00,ITA,9,Toscana,51,Arezzo,AR,43.46642752,11.88228844,0,
231,25-02-2020 18:00,ITA,9,Toscana,48,Firenze,FI,43.76923077,11.25588885,1,
232,25-02-2020 18:00,ITA,9,Toscana,53,Grosseto,GR,42.76026758,11.11356398,0,
233,25-02-2020 18:00,ITA,9,Toscana,49,Livorno,LI,43.55234873,10.3086781,0,
234,25-02-2020 18:00,ITA,9,Toscana,46,Lucca,LU,43.84432283,10.50151366,0,
235,25-02-2020 18:00,ITA,9,Toscana,45,Massa Carrara,MS,44.03674425,10.14173829,0,
236,25-02-2020 18:00,ITA,9,Toscana,50,Pisa,PI,43.71553206,10.40127259,0,
237,25-02-2020 18:00,ITA,9,Toscana,47,Pistoia,PT,43.933465,10.91734146,1,
238,25-02-2020 18:00,ITA,9,Toscana,100,Prato,PO,43.88062274,11.09703315,0,
239,25-02-2020 18:00,ITA,9,Toscana,52,Siena,SI,43.31816374,11.33190988,0,
240,25-02-2020 18:00,ITA,9,Toscana,995,In fase di definizione/aggiornamento,,0,0,0,
241,25-02-2020 18:00,ITA,4,P.A. Trento,22,Trento,TN,46.06893511,11.12123097,0,
242,25-02-2020 18:00,ITA,4,P.A. Trento,996,In fase di definizione/aggiornamento,,0,0,0,
243,25-02-2020 18:00,ITA,10,Umbria,54,Perugia,PG,43.10675841,12.38824698,0,
244,25-02-2020 18:00,ITA,10,Umbria,55,Terni,TR,42.56071258,12.6466875,0,
245,25-02-2020 18:00,ITA,10,Umbria,997,In fase di definizione/aggiornamento,,0,0,0,
246,25-02-2020 18:00,ITA,2,Valle d'Aosta,7,Aosta,AO,45.73750286,7.320149366,0,
247,25-02-2020 18:00,ITA,2,Valle d'Aosta,998,In fase di definizione/aggiornamento,,0,0,0,
248,25-02-2020 18:00,ITA,5,Veneto,25,Belluno,BL,46.13837528,12.21704167,0,
249,25-02-2020 18:00,ITA,5,Veneto,28,Padova,PD,45.40692987,11.87608718,30,
250,25-02-2020 18:00,ITA,5,Veneto,29,Rovigo,RO,45.07107289,11.79007,0,
251,25-02-2020 18:00,ITA,5,Veneto,26,Treviso,TV,45.66754571,12.24507363,1,
252,25-02-2020 18:00,ITA,5,Veneto,27,Venezia,VE,45.43490485,12.33845213,7,
253,25-02-2020 18:00,ITA,5,Veneto,23,Verona,VR,45.43839046,10.99352685,0,
254,25-02-2020 18:00,ITA,5,Veneto,24,Vicenza,VI,45.547497,11.54597109,0,322
255,25-02-2020 18:00,ITA,5,Veneto,999,In fase di definizione/aggiornamento,,0,0,5,
256,26-02-2020 18:00,ITA,13,Abruzzo,69,Chieti,CH,42.35103167,14.16754574,0,
257,26-02-2020 18:00,ITA,13,Abruzzo,66,L'Aquila,AQ,42.35122196,13.39843823,0,
258,26-02-2020 18:00,ITA,13,Abruzzo,68,Pescara,PE,42.46458398,14.21364822,0,
259,26-02-2020 18:00,ITA,13,Abruzzo,67,Teramo,TE,42.6589177,13.70439971,0,
260,26-02-2020 18:00,ITA,13,Abruzzo,979,In fase di definizione/aggiornamento,,0,0,0,
261,26-02-2020 18:00,ITA,17,Basilicata,77,Matera,MT,40.66751177,16.59792442,0,
262,26-02-2020 18:00,ITA,17,Basilicata,76,Potenza,PZ,40.63947052,15.80514834,0,
263,26-02-2020 18:00,ITA,17,Basilicata,980,In fase di definizione/aggiornamento,,0,0,0,
264,26-02-2020 18:00,ITA,4,P.A. Bolzano,21,Bolzano,BZ,46.49933453,11.35662422,1,
265,26-02-2020 18:00,ITA,4,P.A. Bolzano,981,In fase di definizione/aggiornamento,,0,0,0,
266,26-02-2020 18:00,ITA,18,Calabria,79,Catanzaro,CZ,38.90597598,16.59440194,0,
267,26-02-2020 18:00,ITA,18,Calabria,78,Cosenza,CS,39.29308681,16.25609692,0,
268,26-02-2020 18:00,ITA,18,Calabria,101,Crotone,KR,39.08036878,17.12538864,0,
269,26-02-2020 18:00,ITA,18,Calabria,80,Reggio di Calabria,RC,38.10922769,15.6434527,0,
270,26-02-2020 18:00,ITA,18,Calabria,102,Vibo Valentia,VV,38.67624147,16.10157414,0,
271,26-02-2020 18:00,ITA,18,Calabria,982,In fase di definizione/aggiornamento,,0,0,0,
272,26-02-2020 18:00,ITA,15,Campania,64,Avellino,AV,40.91404699,14.79528803,0,
273,26-02-2020 18:00,ITA,15,Campania,62,Benevento,BN,41.12969987,14.78151683,0,
274,26-02-2020 18:00,ITA,15,Campania,61,Caserta,CE,41.07465878,14.33240464,0,
275,26-02-2020 18:00,ITA,15,Campania,63,Napoli,,40.83956555,14.25084984,0,
276,26-02-2020 18:00,ITA,15,Campania,65,Salerno,SA,40.67821961,14.7594026,0,
277,26-02-2020 18:00,ITA,15,Campania,983,In fase di definizione/aggiornamento,,0,0,0,
278,26-02-2020 18:00,ITA,8,Emilia Romagna,37,Bologna,BO,44.49436681,11.3417208,0,
279,26-02-2020 18:00,ITA,8,Emilia Romagna,38,Ferrara,FE,44.83599085,11.61868934,0,
280,26-02-2020 18:00,ITA,8,Emilia Romagna,40,Forlì-Cesena,FC,44.22268559,12.04068608,0,
281,26-02-2020 18:00,ITA,8,Emilia Romagna,36,Modena,MO,44.64600009,10.92615487,8,
282,26-02-2020 18:00,ITA,8,Emilia Romagna,34,Parma,PR,44.80107394,10.32834985,8,
283,26-02-2020 18:00,ITA,8,Emilia Romagna,33,Piacenza,PC,45.05193462,9.692632596,28,
284,26-02-2020 18:00,ITA,8,Emilia Romagna,39,Ravenna,RA,44.41722493,12.19913936,0,
285,26-02-2020 18:00,ITA,8,Emilia Romagna,35,Reggio nell'Emilia,RE,44.69735289,10.63007973,0,
286,26-02-2020 18:00,ITA,8,Emilia Romagna,99,Rimini,RN,44.06090087,12.5656295,3,
287,26-02-2020 18:00,ITA,8,Emilia Romagna,984,In fase di definizione/aggiornamento,,0,0,0,
288,26-02-2020 18:00,ITA,6,Friuli Venezia Giulia,31,Gorizia,GO,45.94149817,13.62212502,0,
289,26-02-2020 18:00,ITA,6,Friuli Venezia Giulia,93,Pordenone,PN,45.95443546,12.66002909,0,
290,26-02-2020 18:00,ITA,6,Friuli Venezia Giulia,32,Trieste,TS,45.6494354,13.76813649,0,
291,26-02-2020 18:00,ITA,6,Friuli Venezia Giulia,30,Udine,UD,46.06255516,13.2348383,0,
292,26-02-2020 18:00,ITA,6,Friuli Venezia Giulia,985,In fase di definizione/aggiornamento,,0,0,0,
293,26-02-2020 18:00,ITA,12,Lazio,60,Frosinone,FR,41.63964569,13.35117161,0,
294,26-02-2020 18:00,ITA,12,Lazio,59,Latina,LT,41.46759465,12.90368482,0,
295,26-02-2020 18:00,ITA,12,Lazio,57,Rieti,RI,42.40488444,12.86205939,0,
296,26-02-2020 18:00,ITA,12,Lazio,58,Roma,RM,41.89277044,12.48366722,3,
297,26-02-2020 18:00,ITA,12,Lazio,56,Viterbo,VT,42.4173828,12.10473416,0,
298,26-02-2020 18:00,ITA,12,Lazio,986,In fase di definizione/aggiornamento,,0,0,0,
299,26-02-2020 18:00,ITA,7,Liguria,10,Genova,GE,44.41149314,8.9326992,0,
300,26-02-2020 18:00,ITA,7,Liguria,8,Imperia,IM,43.88570648,8.027850298,0,
301,26-02-2020 18:00,ITA,7,Liguria,11,La Spezia,SP,44.10704991,9.8281897,1,
302,26-02-2020 18:00,ITA,7,Liguria,9,Savona,SV,44.30750461,8.481108654,10,
303,26-02-2020 18:00,ITA,7,Liguria,987,In fase di definizione/aggiornamento,,0,0,0,
304,26-02-2020 18:00,ITA,3,Lombardia,16,Bergamo,BG,45.69441368,9.668424528,20,
305,26-02-2020 18:00,ITA,3,Lombardia,17,Brescia,BS,45.53993052,10.21910323,2,
306,26-02-2020 18:00,ITA,3,Lombardia,13,Como,CO,45.8099912,9.085159546,0,
307,26-02-2020 18:00,ITA,3,Lombardia,19,Cremona,CR,45.13336675,10.02420865,57,
308,26-02-2020 18:00,ITA,3,Lombardia,97,Lecco,LC,45.85575781,9.393392246,0,
309,26-02-2020 18:00,ITA,3,Lombardia,98,Lodi,LO,45.31440693,9.503720769,128,
310,26-02-2020 18:00,ITA,3,Lombardia,20,Mantova,MN,45.15726772,10.79277363,0,
311,26-02-2020 18:00,ITA,3,Lombardia,15,Milano,MI,45.46679409,9.190347404,8,
312,26-02-2020 18:00,ITA,3,Lombardia,108,Monza e della Brianza,MB,45.58439043,9.273582472,4,
313,26-02-2020 18:00,ITA,3,Lombardia,18,Pavia,PV,45.18509264,9.160157191,27,
314,26-02-2020 18:00,ITA,3,Lombardia,14,Sondrio,SO,46.17099261,9.87147489,3,
315,26-02-2020 18:00,ITA,3,Lombardia,12,Varese,VA,45.81701677,8.822868344,0,
316,26-02-2020 18:00,ITA,3,Lombardia,988,In fase di definizione/aggiornamento,,0,0,9,
317,26-02-2020 18:00,ITA,11,Marche,42,Ancona,AN,43.61675973,13.5188753,0,
318,26-02-2020 18:00,ITA,11,Marche,44,Ascoli Piceno,AP,42.85322304,13.57691127,0,
319,26-02-2020 18:00,ITA,11,Marche,109,Fermo,FM,43.16058534,13.71839535,0,
320,26-02-2020 18:00,ITA,11,Marche,43,Macerata,MC,43.30023926,13.45307182,0,
321,26-02-2020 18:00,ITA,11,Marche,41,Pesaro e Urbino,PU,43.91014021,12.91345989,1,
322,26-02-2020 18:00,ITA,11,Marche,989,In fase di definizione/aggiornamento,,0,0,0,
323,26-02-2020 18:00,ITA,14,Molise,70,Campobasso,CB,41.55774754,14.65916051,0,
324,26-02-2020 18:00,ITA,14,Molise,94,Isernia,IS,41.58800826,14.22575407,0,
325,26-02-2020 18:00,ITA,14,Molise,990,In fase di definizione/aggiornamento,,0,0,0,
326,26-02-2020 18:00,ITA,1,Piemonte,6,Alessandria,AL,44.91297351,8.615401155,0,
327,26-02-2020 18:00,ITA,1,Piemonte,5,Asti,AT,44.89912921,8.204142547,0,
328,26-02-2020 18:00,ITA,1,Piemonte,96,Biella,BI,45.5665112,8.054082167,0,
329,26-02-2020 18:00,ITA,1,Piemonte,4,Cuneo,CN,44.39329625,7.551171632,0,
330,26-02-2020 18:00,ITA,1,Piemonte,3,Novara,NO,45.44588506,8.621915884,0,
331,26-02-2020 18:00,ITA,1,Piemonte,1,Torino,TO,45.0732745,7.680687483,3,
332,26-02-2020 18:00,ITA,1,Piemonte,103,Verbano-Cusio-Ossola,VB,45.9214455,8.551078753,0,
333,26-02-2020 18:00,ITA,1,Piemonte,2,Vercelli,VC,45.32398135,8.423234312,0,
334,26-02-2020 18:00,ITA,1,Piemonte,991,In fase di definizione/aggiornamento,,0,0,0,
335,26-02-2020 18:00,ITA,16,Puglia,72,Bari,BA,41.12559576,16.86736689,0,
336,26-02-2020 18:00,ITA,16,Puglia,110,Barletta-Andria-Trani,BT,41.22705039,16.29520432,0,
337,26-02-2020 18:00,ITA,16,Puglia,74,Brindisi,BR,40.63848545,17.94601575,0,
338,26-02-2020 18:00,ITA,16,Puglia,71,Foggia,FG,41.46226865,15.54305094,0,
339,26-02-2020 18:00,ITA,16,Puglia,75,Lecce,LE,40.35354285,18.1718973,0,
340,26-02-2020 18:00,ITA,16,Puglia,73,Taranto,TA,40.47354739,17.23237181,0,
341,26-02-2020 18:00,ITA,16,Puglia,992,In fase di definizione/aggiornamento,,0,0,0,
342,26-02-2020 18:00,ITA,20,Sardegna,92,Cagliari,CA,39.21531192,9.110616306,0,
343,26-02-2020 18:00,ITA,20,Sardegna,91,Nuoro,NU,40.32318834,9.330296393,0,
344,26-02-2020 18:00,ITA,20,Sardegna,95,Oristano,OR,39.90381075,8.591183151,0,
345,26-02-2020 18:00,ITA,20,Sardegna,90,Sassari,SS,40.72667657,8.559667131,0,
346,26-02-2020 18:00,ITA,20,Sardegna,111,Sud Sardegna,SU,39.16641462,8.526242676,0,
347,26-02-2020 18:00,ITA,20,Sardegna,993,In fase di definizione/aggiornamento,,0,0,0,
348,26-02-2020 18:00,ITA,19,Sicilia,84,Agrigento,AG,37.30971088,13.5845749,0,
349,26-02-2020 18:00,ITA,19,Sicilia,85,Caltanissetta,CL,37.49213171,14.06184973,0,
350,26-02-2020 18:00,ITA,19,Sicilia,87,Catania,CT,37.50287803,15.08704691,0,
351,26-02-2020 18:00,ITA,19,Sicilia,86,Enna,EN,37.56705701,14.27909375,0,
352,26-02-2020 18:00,ITA,19,Sicilia,83,Messina,ME,38.19395845,15.55572302,0,
353,26-02-2020 18:00,ITA,19,Sicilia,82,Palermo,PA,38.11569725,13.3623567,3,
354,26-02-2020 18:00,ITA,19,Sicilia,88,Ragusa,RG,36.92509198,14.73069891,0,
355,26-02-2020 18:00,ITA,19,Sicilia,89,Siracusa,SR,37.05991687,15.29333182,0,
356,26-02-2020 18:00,ITA,19,Sicilia,81,Trapani,TP,38.01850065,12.51365684,0,
357,26-02-2020 18:00,ITA,19,Sicilia,994,In fase di definizione/aggiornamento,,0,0,0,
358,26-02-2020 18:00,ITA,9,Toscana,51,Arezzo,AR,43.46642752,11.88228844,0,
359,26-02-2020 18:00,ITA,9,Toscana,48,Firenze,FI,43.76923077,11.25588885,2,
360,26-02-2020 18:00,ITA,9,Toscana,53,Grosseto,GR,42.76026758,11.11356398,0,
361,26-02-2020 18:00,ITA,9,Toscana,49,Livorno,LI,43.55234873,10.3086781,0,
362,26-02-2020 18:00,ITA,9,Toscana,46,Lucca,LU,43.84432283,10.50151366,0,
363,26-02-2020 18:00,ITA,9,Toscana,45,Massa Carrara,MS,44.03674425,10.14173829,0,
364,26-02-2020 18:00,ITA,9,Toscana,50,Pisa,PI,43.71553206,10.40127259,0,
365,26-02-2020 18:00,ITA,9,Toscana,47,Pistoia,PT,43.933465,10.91734146,0,
366,26-02-2020 18:00,ITA,9,Toscana,100,Prato,PO,43.88062274,11.09703315,0,
367,26-02-2020 18:00,ITA,9,Toscana,52,Siena,SI,43.31816374,11.33190988,0,
368,26-02-2020 18:00,ITA,9,Toscana,995,In fase di definizione/aggiornamento,,0,0,0,
369,26-02-2020 18:00,ITA,4,P.A. Trento,22,Trento,TN,46.06893511,11.12123097,0,
370,26-02-2020 18:00,ITA,4,P.A. Trento,996,In fase di definizione/aggiornamento,,0,0,0,
371,26-02-2020 18:00,ITA,10,Umbria,54,Perugia,PG,43.10675841,12.38824698,0,
372,26-02-2020 18:00,ITA,10,Umbria,55,Terni,TR,42.56071258,12.6466875,0,
373,26-02-2020 18:00,ITA,10,Umbria,997,In fase di definizione/aggiornamento,,0,0,0,
374,26-02-2020 18:00,ITA,2,Valle d'Aosta,7,Aosta,AO,45.73750286,7.320149366,0,
375,26-02-2020 18:00,ITA,2,Valle d'Aosta,998,In fase di definizione/aggiornamento,,0,0,0,
376,26-02-2020 18:00,ITA,5,Veneto,25,Belluno,BL,46.13837528,12.21704167,0,
377,26-02-2020 18:00,ITA,5,Veneto,28,Padova,PD,45.40692987,11.87608718,40,
378,26-02-2020 18:00,ITA,5,Veneto,29,Rovigo,RO,45.07107289,11.79007,0,
379,26-02-2020 18:00,ITA,5,Veneto,26,Treviso,TV,45.66754571,12.24507363,2,
380,26-02-2020 18:00,ITA,5,Veneto,27,Venezia,VE,45.43490485,12.33845213,8,
381,26-02-2020 18:00,ITA,5,Veneto,23,Verona,VR,45.43839046,10.99352685,0,
382,26-02-2020 18:00,ITA,5,Veneto,24,Vicenza,VI,45.547497,11.54597109,0,
383,26-02-2020 18:00,ITA,5,Veneto,999,In fase di definizione/aggiornamento,,0,0,21,
384,27-02-2020 18:00,ITA,13,Abruzzo,69,Chieti,CH,42.35103167,14.16754574,0,
385,27-02-2020 18:00,ITA,13,Abruzzo,66,L'Aquila,AQ,42.35122196,13.39843823,0,
386,27-02-2020 18:00,ITA,13,Abruzzo,68,Pescara,PE,42.46458398,14.21364822,0,
387,27-02-2020 18:00,ITA,13,Abruzzo,67,Teramo,TE,42.6589177,13.70439971,1,
388,27-02-2020 18:00,ITA,13,Abruzzo,979,In fase di definizione/aggiornamento,,0,0,0,
389,27-02-2020 18:00,ITA,17,Basilicata,77,Matera,MT,40.66751177,16.59792442,0,
390,27-02-2020 18:00,ITA,17,Basilicata,76,Potenza,PZ,40.63947052,15.80514834,0,
391,27-02-2020 18:00,ITA,17,Basilicata,980,In fase di definizione/aggiornamento,,0,0,0,
392,27-02-2020 18:00,ITA,4,P.A. Bolzano,21,Bolzano,BZ,46.49933453,11.35662422,1,
393,27-02-2020 18:00,ITA,4,P.A. Bolzano,981,In fase di definizione/aggiornamento,,0,0,0,
394,27-02-2020 18:00,ITA,18,Calabria,79,Catanzaro,CZ,38.90597598,16.59440194,0,
395,27-02-2020 18:00,ITA,18,Calabria,78,Cosenza,CS,39.29308681,16.25609692,0,
396,27-02-2020 18:00,ITA,18,Calabria,101,Crotone,KR,39.08036878,17.12538864,0,
397,27-02-2020 18:00,ITA,18,Calabria,80,Reggio di Calabria,RC,38.10922769,15.6434527,0,
398,27-02-2020 18:00,ITA,18,Calabria,102,Vibo Valentia,VV,38.67624147,16.10157414,0,
399,27-02-2020 18:00,ITA,18,Calabria,982,In fase di definizione/aggiornamento,,0,0,0,
400,27-02-2020 18:00,ITA,15,Campania,64,Avellino,AV,40.91404699,14.79528803,0,
401,27-02-2020 18:00,ITA,15,Campania,62,Benevento,BN,41.12969987,14.78151683,0,
402,27-02-2020 18:00,ITA,15,Campania,61,Caserta,CE,41.07465878,14.33240464,0,
403,27-02-2020 18:00,ITA,15,Campania,63,Napoli,,40.83956555,14.25084984,3,
404,27-02-2020 18:00,ITA,15,Campania,65,Salerno,SA,40.67821961,14.7594026,0,
405,27-02-2020 18:00,ITA,15,Campania,983,In fase di definizione/aggiornamento,,0,0,0,
406,27-02-2020 18:00,ITA,8,Emilia Romagna,37,Bologna,BO,44.49436681,11.3417208,0,
407,27-02-2020 18:00,ITA,8,Emilia Romagna,38,Ferrara,FE,44.83599085,11.61868934,0,
408,27-02-2020 18:00,ITA,8,Emilia Romagna,40,Forlì-Cesena,FC,44.22268559,12.04068608,0,
409,27-02-2020 18:00,ITA,8,Emilia Romagna,36,Modena,MO,44.64600009,10.92615487,18,
410,27-02-2020 18:00,ITA,8,Emilia Romagna,34,Parma,PR,44.80107394,10.32834985,10,
411,27-02-2020 18:00,ITA,8,Emilia Romagna,33,Piacenza,PC,45.05193462,9.692632596,63,
412,27-02-2020 18:00,ITA,8,Emilia Romagna,39,Ravenna,RA,44.41722493,12.19913936,0,
413,27-02-2020 18:00,ITA,8,Emilia Romagna,35,Reggio nell'Emilia,RE,44.69735289,10.63007973,0,
414,27-02-2020 18:00,ITA,8,Emilia Romagna,99,Rimini,RN,44.06090087,12.5656295,6,
415,27-02-2020 18:00,ITA,8,Emilia Romagna,984,In fase di definizione/aggiornamento,,0,0,0,
416,27-02-2020 18:00,ITA,6,Friuli Venezia Giulia,31,Gorizia,GO,45.94149817,13.62212502,0,
417,27-02-2020 18:00,ITA,6,Friuli Venezia Giulia,93,Pordenone,PN,45.95443546,12.66002909,0,
418,27-02-2020 18:00,ITA,6,Friuli Venezia Giulia,32,Trieste,TS,45.6494354,13.76813649,0,
419,27-02-2020 18:00,ITA,6,Friuli Venezia Giulia,30,Udine,UD,46.06255516,13.2348383,0,
420,27-02-2020 18:00,ITA,6,Friuli Venezia Giulia,985,In fase di definizione/aggiornamento,,0,0,0,
421,27-02-2020 18:00,ITA,12,Lazio,60,Frosinone,FR,41.63964569,13.35117161,0,
422,27-02-2020 18:00,ITA,12,Lazio,59,Latina,LT,41.46759465,12.90368482,0,
423,27-02-2020 18:00,ITA,12,Lazio,57,Rieti,RI,42.40488444,12.86205939,0,
424,27-02-2020 18:00,ITA,12,Lazio,58,Roma,RM,41.89277044,12.48366722,3,
425,27-02-2020 18:00,ITA,12,Lazio,56,Viterbo,VT,42.4173828,12.10473416,0,
426,27-02-2020 18:00,ITA,12,Lazio,986,In fase di definizione/aggiornamento,,0,0,0,
427,27-02-2020 18:00,ITA,7,Liguria,10,Genova,GE,44.41149314,8.9326992,0,
428,27-02-2020 18:00,ITA,7,Liguria,8,Imperia,IM,43.88570648,8.027850298,0,
429,27-02-2020 18:00,ITA,7,Liguria,11,La Spezia,SP,44.10704991,9.8281897,1,
430,27-02-2020 18:00,ITA,7,Liguria,9,Savona,SV,44.30750461,8.481108654,18,
431,27-02-2020 18:00,ITA,7,Liguria,987,In fase di definizione/aggiornamento,,0,0,0,
432,27-02-2020 18:00,ITA,3,Lombardia,16,Bergamo,BG,45.69441368,9.668424528,72,
433,27-02-2020 18:00,ITA,3,Lombardia,17,Brescia,BS,45.53993052,10.21910323,10,
434,27-02-2020 18:00,ITA,3,Lombardia,13,Como,CO,45.8099912,9.085159546,0,
435,27-02-2020 18:00,ITA,3,Lombardia,19,Cremona,CR,45.13336675,10.02420865,91,
436,27-02-2020 18:00,ITA,3,Lombardia,97,Lecco,LC,45.85575781,9.393392246,0,
437,27-02-2020 18:00,ITA,3,Lombardia,98,Lodi,LO,45.31440693,9.503720769,159,
438,27-02-2020 18:00,ITA,3,Lombardia,20,Mantova,MN,45.15726772,10.79277363,0,
439,27-02-2020 18:00,ITA,3,Lombardia,15,Milano,MI,45.46679409,9.190347404,15,
440,27-02-2020 18:00,ITA,3,Lombardia,108,Monza e della Brianza,MB,45.58439043,9.273582472,5,
441,27-02-2020 18:00,ITA,3,Lombardia,18,Pavia,PV,45.18509264,9.160157191,36,
442,27-02-2020 18:00,ITA,3,Lombardia,14,Sondrio,SO,46.17099261,9.87147489,3,
443,27-02-2020 18:00,ITA,3,Lombardia,12,Varese,VA,45.81701677,8.822868344,0,
444,27-02-2020 18:00,ITA,3,Lombardia,988,In fase di definizione/aggiornamento,,0,0,12,
445,27-02-2020 18:00,ITA,11,Marche,42,Ancona,AN,43.61675973,13.5188753,0,
446,27-02-2020 18:00,ITA,11,Marche,44,Ascoli Piceno,AP,42.85322304,13.57691127,0,
447,27-02-2020 18:00,ITA,11,Marche,109,Fermo,FM,43.16058534,13.71839535,0,
448,27-02-2020 18:00,ITA,11,Marche,43,Macerata,MC,43.30023926,13.45307182,0,
449,27-02-2020 18:00,ITA,11,Marche,41,Pesaro e Urbino,PU,43.91014021,12.91345989,3,
450,27-02-2020 18:00,ITA,11,Marche,989,In fase di definizione/aggiornamento,,0,0,0,
451,27-02-2020 18:00,ITA,14,Molise,70,Campobasso,CB,41.55774754,14.65916051,0,
452,27-02-2020 18:00,ITA,14,Molise,94,Isernia,IS,41.58800826,14.22575407,0,
453,27-02-2020 18:00,ITA,14,Molise,990,In fase di definizione/aggiornamento,,0,0,0,
454,27-02-2020 18:00,ITA,1,Piemonte,6,Alessandria,AL,44.91297351,8.615401155,0,
455,27-02-2020 18:00,ITA,1,Piemonte,5,Asti,AT,44.89912921,8.204142547,0,
456,27-02-2020 18:00,ITA,1,Piemonte,96,Biella,BI,45.5665112,8.054082167,0,
457,27-02-2020 18:00,ITA,1,Piemonte,4,Cuneo,CN,44.39329625,7.551171632,0,
458,27-02-2020 18:00,ITA,1,Piemonte,3,Novara,NO,45.44588506,8.621915884,0,
459,27-02-2020 18:00,ITA,1,Piemonte,1,Torino,TO,45.0732745,7.680687483,2,
460,27-02-2020 18:00,ITA,1,Piemonte,103,Verbano-Cusio-Ossola,VB,45.9214455,8.551078753,0,
461,27-02-2020 18:00,ITA,1,Piemonte,2,Vercelli,VC,45.32398135,8.423234312,0,
462,27-02-2020 18:00,ITA,1,Piemonte,991,In fase di definizione/aggiornamento,,0,0,0,
463,27-02-2020 18:00,ITA,16,Puglia,72,Bari,BA,41.12559576,16.86736689,1,
464,27-02-2020 18:00,ITA,16,Puglia,110,Barletta-Andria-Trani,BT,41.22705039,16.29520432,0,
465,27-02-2020 18:00,ITA,16,Puglia,74,Brindisi,BR,40.63848545,17.94601575,0,
466,27-02-2020 18:00,ITA,16,Puglia,71,Foggia,FG,41.46226865,15.54305094,0,
467,27-02-2020 18:00,ITA,16,Puglia,75,Lecce,LE,40.35354285,18.1718973,0,
468,27-02-2020 18:00,ITA,16,Puglia,73,Taranto,TA,40.47354739,17.23237181,0,
469,27-02-2020 18:00,ITA,16,Puglia,992,In fase di definizione/aggiornamento,,0,0,0,
470,27-02-2020 18:00,ITA,20,Sardegna,92,Cagliari,CA,39.21531192,9.110616306,0,
471,27-02-2020 18:00,ITA,20,Sardegna,91,Nuoro,NU,40.32318834,9.330296393,0,
472,27-02-2020 18:00,ITA,20,Sardegna,95,Oristano,OR,39.90381075,8.591183151,0,
473,27-02-2020 18:00,ITA,20,Sardegna,90,Sassari,SS,40.72667657,8.559667131,0,
474,27-02-2020 18:00,ITA,20,Sardegna,111,Sud Sardegna,SU,39.16641462,8.526242676,0,
475,27-02-2020 18:00,ITA,20,Sardegna,993,In fase di definizione/aggiornamento,,0,0,0,
476,27-02-2020 18:00,ITA,19,Sicilia,84,Agrigento,AG,37.30971088,13.5845749,0,
477,27-02-2020 18:00,ITA,19,Sicilia,85,Caltanissetta,CL,37.49213171,14.06184973,0,
478,27-02-2020 18:00,ITA,19,Sicilia,87,Catania,CT,37.50287803,15.08704691,1,
479,27-02-2020 18:00,ITA,19,Sicilia,86,Enna,EN,37.56705701,14.27909375,0,
480,27-02-2020 18:00,ITA,19,Sicilia,83,Messina,ME,38.19395845,15.55572302,0,
481,27-02-2020 18:00,ITA,19,Sicilia,82,Palermo,PA,38.11569725,13.3623567,3,
482,27-02-2020 18:00,ITA,19,Sicilia,88,Ragusa,RG,36.92509198,14.73069891,0,
483,27-02-2020 18:00,ITA,19,Sicilia,89,Siracusa,SR,37.05991687,15.29333182,0,
484,27-02-2020 18:00,ITA,19,Sicilia,81,Trapani,TP,38.01850065,12.51365684,0,
485,27-02-2020 18:00,ITA,19,Sicilia,994,In fase di definizione/aggiornamento,,0,0,0,
486,27-02-2020 18:00,ITA,9,Toscana,51,Arezzo,AR,43.46642752,11.88228844,0,
487,27-02-2020 18:00,ITA,9,Toscana,48,Firenze,FI,43.76923077,11.25588885,1,
488,27-02-2020 18:00,ITA,9,Toscana,53,Grosseto,GR,42.76026758,11.11356398,0,
489,27-02-2020 18:00,ITA,9,Toscana,49,Livorno,LI,43.55234873,10.3086781,0,
490,27-02-2020 18:00,ITA,9,Toscana,46,Lucca,LU,43.84432283,10.50151366,0,
491,27-02-2020 18:00,ITA,9,Toscana,45,Massa Carrara,MS,44.03674425,10.14173829,0,
492,27-02-2020 18:00,ITA,9,Toscana,50,Pisa,PI,43.71553206,10.40127259,0,
493,27-02-2020 18:00,ITA,9,Toscana,47,Pistoia,PT,43.933465,10.91734146,1,
494,27-02-2020 18:00,ITA,9,Toscana,100,Prato,PO,43.88062274,11.09703315,0,
495,27-02-2020 18:00,ITA,9,Toscana,52,Siena,SI,43.31816374,11.33190988,0,
496,27-02-2020 18:00,ITA,9,Toscana,995,In fase di definizione/aggiornamento,,0,0,0,
497,27-02-2020 18:00,ITA,4,P.A. Trento,22,Trento,TN,46.06893511,11.12123097,0,
498,27-02-2020 18:00,ITA,4,P.A. Trento,996,In fase di definizione/aggiornamento,,0,0,0,
499,27-02-2020 18:00,ITA,10,Umbria,54,Perugia,PG,43.10675841,12.38824698,0,
500,27-02-2020 18:00,ITA,10,Umbria,55,Terni,TR,42.56071258,12.6466875,0,
501,27-02-2020 18:00,ITA,10,Umbria,997,In fase di definizione/aggiornamento,,0,0,0,
502,27-02-2020 18:00,ITA,2,Valle d'Aosta,7,Aosta,AO,45.73750286,7.320149366,0,
503,27-02-2020 18:00,ITA,2,Valle d'Aosta,998,In fase di definizione/aggiornamento,,0,0,0,
504,27-02-2020 18:00,ITA,5,Veneto,25,Belluno,BL,46.13837528,12.21704167,0,
505,27-02-2020 18:00,ITA,5,Veneto,28,Padova,PD,45.40692987,11.87608718,59,
506,27-02-2020 18:00,ITA,5,Veneto,29,Rovigo,RO,45.07107289,11.79007,0,
507,27-02-2020 18:00,ITA,5,Veneto,26,Treviso,TV,45.66754571,12.24507363,22,
508,27-02-2020 18:00,ITA,5,Veneto,27,Venezia,VE,45.43490485,12.33845213,14,
509,27-02-2020 18:00,ITA,5,Veneto,23,Verona,VR,45.43839046,10.99352685,0,
510,27-02-2020 18:00,ITA,5,Veneto,24,Vicenza,VI,45.547497,11.54597109,3,
511,27-02-2020 18:00,ITA,5,Veneto,999,In fase di definizione/aggiornamento,,0,0,13,
512,28-02-2020 18:00,ITA,13,Abruzzo,69,Chieti,CH,42.35103167,14.16754574,0,
513,28-02-2020 18:00,ITA,13,Abruzzo,66,L'Aquila,AQ,42.35122196,13.39843823,0,
514,28-02-2020 18:00,ITA,13,Abruzzo,68,Pescara,PE,42.46458398,14.21364822,0,
515,28-02-2020 18:00,ITA,13,Abruzzo,67,Teramo,TE,42.6589177,13.70439971,1,
516,28-02-2020 18:00,ITA,13,Abruzzo,979,In fase di definizione/aggiornamento,,0,0,0,
517,28-02-2020 18:00,ITA,17,Basilicata,77,Matera,MT,40.66751177,16.59792442,0,
518,28-02-2020 18:00,ITA,17,Basilicata,76,Potenza,PZ,40.63947052,15.80514834,0,
519,28-02-2020 18:00,ITA,17,Basilicata,980,In fase di definizione/aggiornamento,,0,0,0,
520,28-02-2020 18:00,ITA,4,P.A. Bolzano,21,Bolzano,BZ,46.49933453,11.35662422,1,
521,28-02-2020 18:00,ITA,4,P.A. Bolzano,981,In fase di definizione/aggiornamento,,0,0,0,
522,28-02-2020 18:00,ITA,18,Calabria,79,Catanzaro,CZ,38.90597598,16.59440194,0,
523,28-02-2020 18:00,ITA,18,Calabria,78,Cosenza,CS,39.29308681,16.25609692,1,
524,28-02-2020 18:00,ITA,18,Calabria,101,Crotone,KR,39.08036878,17.12538864,0,
525,28-02-2020 18:00,ITA,18,Calabria,80,Reggio di Calabria,RC,38.10922769,15.6434527,0,
526,28-02-2020 18:00,ITA,18,Calabria,102,Vibo Valentia,VV,38.67624147,16.10157414,0,
527,28-02-2020 18:00,ITA,18,Calabria,982,In fase di definizione/aggiornamento,,0,0,0,
528,28-02-2020 18:00,ITA,15,Campania,64,Avellino,AV,40.91404699,14.79528803,0,
529,28-02-2020 18:00,ITA,15,Campania,62,Benevento,BN,41.12969987,14.78151683,0,
530,28-02-2020 18:00,ITA,15,Campania,61,Caserta,CE,41.07465878,14.33240464,0,
531,28-02-2020 18:00,ITA,15,Campania,63,Napoli,,40.83956555,14.25084984,4,
532,28-02-2020 18:00,ITA,15,Campania,65,Salerno,SA,40.67821961,14.7594026,0,
533,28-02-2020 18:00,ITA,15,Campania,983,In fase di definizione/aggiornamento,,0,0,0,
534,28-02-2020 18:00,ITA,8,Emilia Romagna,37,Bologna,BO,44.49436681,11.3417208,0,
535,28-02-2020 18:00,ITA,8,Emilia Romagna,38,Ferrara,FE,44.83599085,11.61868934,0,
536,28-02-2020 18:00,ITA,8,Emilia Romagna,40,Forlì-Cesena,FC,44.22268559,12.04068608,0,
537,28-02-2020 18:00,ITA,8,Emilia Romagna,36,Modena,MO,44.64600009,10.92615487,18,
538,28-02-2020 18:00,ITA,8,Emilia Romagna,34,Parma,PR,44.80107394,10.32834985,27,
539,28-02-2020 18:00,ITA,8,Emilia Romagna,33,Piacenza,PC,45.05193462,9.692632596,89,
540,28-02-2020 18:00,ITA,8,Emilia Romagna,39,Ravenna,RA,44.41722493,12.19913936,1,
541,28-02-2020 18:00,ITA,8,Emilia Romagna,35,Reggio nell'Emilia,RE,44.69735289,10.63007973,1,
542,28-02-2020 18:00,ITA,8,Emilia Romagna,99,Rimini,RN,44.06090087,12.5656295,9,
543,28-02-2020 18:00,ITA,8,Emilia Romagna,984,In fase di definizione/aggiornamento,,0,0,0,
544,28-02-2020 18:00,ITA,6,Friuli Venezia Giulia,31,Gorizia,GO,45.94149817,13.62212502,0,
545,28-02-2020 18:00,ITA,6,Friuli Venezia Giulia,93,Pordenone,PN,45.95443546,12.66002909,0,
546,28-02-2020 18:00,ITA,6,Friuli Venezia Giulia,32,Trieste,TS,45.6494354,13.76813649,0,
547,28-02-2020 18:00,ITA,6,Friuli Venezia Giulia,30,Udine,UD,46.06255516,13.2348383,0,
548,28-02-2020 18:00,ITA,6,Friuli Venezia Giulia,985,In fase di definizione/aggiornamento,,0,0,0,
549,28-02-2020 18:00,ITA,12,Lazio,60,Frosinone,FR,41.63964569,13.35117161,0,
550,28-02-2020 18:00,ITA,12,Lazio,59,Latina,LT,41.46759465,12.90368482,0,
551,28-02-2020 18:00,ITA,12,Lazio,57,Rieti,RI,42.40488444,12.86205939,0,
552,28-02-2020 18:00,ITA,12,Lazio,58,Roma,RM,41.89277044,12.48366722,3,
553,28-02-2020 18:00,ITA,12,Lazio,56,Viterbo,VT,42.4173828,12.10473416,0,
554,28-02-2020 18:00,ITA,12,Lazio,986,In fase di definizione/aggiornamento,,0,0,0,
555,28-02-2020 18:00,ITA,7,Liguria,10,Genova,GE,44.41149314,8.9326992,0,
556,28-02-2020 18:00,ITA,7,Liguria,8,Imperia,IM,43.88570648,8.027850298,0,
557,28-02-2020 18:00,ITA,7,Liguria,11,La Spezia,SP,44.10704991,9.8281897,1,
558,28-02-2020 18:00,ITA,7,Liguria,9,Savona,SV,44.30750461,8.481108654,18,
559,28-02-2020 18:00,ITA,7,Liguria,987,In fase di definizione/aggiornamento,,0,0,0,
560,28-02-2020 18:00,ITA,3,Lombardia,16,Bergamo,BG,45.69441368,9.668424528,103,
561,28-02-2020 18:00,ITA,3,Lombardia,17,Brescia,BS,45.53993052,10.21910323,13,
562,28-02-2020 18:00,ITA,3,Lombardia,13,Como,CO,45.8099912,9.085159546,0,
563,28-02-2020 18:00,ITA,3,Lombardia,19,Cremona,CR,45.13336675,10.02420865,123,
564,28-02-2020 18:00,ITA,3,Lombardia,97,Lecco,LC,45.85575781,9.393392246,0,
565,28-02-2020 18:00,ITA,3,Lombardia,98,Lodi,LO,45.31440693,9.503720769,182,
566,28-02-2020 18:00,ITA,3,Lombardia,20,Mantova,MN,45.15726772,10.79277363,0,
567,28-02-2020 18:00,ITA,3,Lombardia,15,Milano,MI,45.46679409,9.190347404,29,
568,28-02-2020 18:00,ITA,3,Lombardia,108,Monza e della Brianza,MB,45.58439043,9.273582472,6,
569,28-02-2020 18:00,ITA,3,Lombardia,18,Pavia,PV,45.18509264,9.160157191,49,
570,28-02-2020 18:00,ITA,3,Lombardia,14,Sondrio,SO,46.17099261,9.87147489,3,
571,28-02-2020 18:00,ITA,3,Lombardia,12,Varese,VA,45.81701677,8.822868344,3,
572,28-02-2020 18:00,ITA,3,Lombardia,988,In fase di definizione/aggiornamento,,0,0,20,
573,28-02-2020 18:00,ITA,11,Marche,42,Ancona,AN,43.61675973,13.5188753,0,
574,28-02-2020 18:00,ITA,11,Marche,44,Ascoli Piceno,AP,42.85322304,13.57691127,0,
575,28-02-2020 18:00,ITA,11,Marche,109,Fermo,FM,43.16058534,13.71839535,0,
576,28-02-2020 18:00,ITA,11,Marche,43,Macerata,MC,43.30023926,13.45307182,0,
577,28-02-2020 18:00,ITA,11,Marche,41,Pesaro e Urbino,PU,43.91014021,12.91345989,6,
578,28-02-2020 18:00,ITA,11,Marche,989,In fase di definizione/aggiornamento,,0,0,0,
579,28-02-2020 18:00,ITA,14,Molise,70,Campobasso,CB,41.55774754,14.65916051,0,
580,28-02-2020 18:00,ITA,14,Molise,94,Isernia,IS,41.58800826,14.22575407,0,
581,28-02-2020 18:00,ITA,14,Molise,990,In fase di definizione/aggiornamento,,0,0,0,
582,28-02-2020 18:00,ITA,1,Piemonte,6,Alessandria,AL,44.91297351,8.615401155,0,
583,28-02-2020 18:00,ITA,1,Piemonte,5,Asti,AT,44.89912921,8.204142547,0,
584,28-02-2020 18:00,ITA,1,Piemonte,96,Biella,BI,45.5665112,8.054082167,0,
585,28-02-2020 18:00,ITA,1,Piemonte,4,Cuneo,CN,44.39329625,7.551171632,0,
586,28-02-2020 18:00,ITA,1,Piemonte,3,Novara,NO,45.44588506,8.621915884,0,
587,28-02-2020 18:00,ITA,1,Piemonte,1,Torino,TO,45.0732745,7.680687483,11,
588,28-02-2020 18:00,ITA,1,Piemonte,103,Verbano-Cusio-Ossola,VB,45.9214455,8.551078753,0,
589,28-02-2020 18:00,ITA,1,Piemonte,2,Vercelli,VC,45.32398135,8.423234312,0,
590,28-02-2020 18:00,ITA,1,Piemonte,991,In fase di definizione/aggiornamento,,0,0,0,
591,28-02-2020 18:00,ITA,16,Puglia,72,Bari,BA,41.12559576,16.86736689,0,
592,28-02-2020 18:00,ITA,16,Puglia,110,Barletta-Andria-Trani,BT,41.22705039,16.29520432,0,
593,28-02-2020 18:00,ITA,16,Puglia,74,Brindisi,BR,40.63848545,17.94601575,0,
594,28-02-2020 18:00,ITA,16,Puglia,71,Foggia,FG,41.46226865,15.54305094,0,
595,28-02-2020 18:00,ITA,16,Puglia,75,Lecce,LE,40.35354285,18.1718973,0,
596,28-02-2020 18:00,ITA,16,Puglia,73,Taranto,TA,40.47354739,17.23237181,3,
597,28-02-2020 18:00,ITA,16,Puglia,992,In fase di definizione/aggiornamento,,0,0,0,
598,28-02-2020 18:00,ITA,20,Sardegna,92,Cagliari,CA,39.21531192,9.110616306,0,
599,28-02-2020 18:00,ITA,20,Sardegna,91,Nuoro,NU,40.32318834,9.330296393,0,
600,28-02-2020 18:00,ITA,20,Sardegna,95,Oristano,OR,39.90381075,8.591183151,0,
601,28-02-2020 18:00,ITA,20,Sardegna,90,Sassari,SS,40.72667657,8.559667131,0,
602,28-02-2020 18:00,ITA,20,Sardegna,111,Sud Sardegna,SU,39.16641462,8.526242676,0,
603,28-02-2020 18:00,ITA,20,Sardegna,993,In fase di definizione/aggiornamento,,0,0,0,
604,28-02-2020 18:00,ITA,19,Sicilia,84,Agrigento,AG,37.30971088,13.5845749,0,
605,28-02-2020 18:00,ITA,19,Sicilia,85,Caltanissetta,CL,37.49213171,14.06184973,0,
606,28-02-2020 18:00,ITA,19,Sicilia,87,Catania,CT,37.50287803,15.08704691,1,
607,28-02-2020 18:00,ITA,19,Sicilia,86,Enna,EN,37.56705701,14.27909375,0,
608,28-02-2020 18:00,ITA,19,Sicilia,83,Messina,ME,38.19395845,15.55572302,0,
609,28-02-2020 18:00,ITA,19,Sicilia,82,Palermo,PA,38.11569725,13.3623567,3,
610,28-02-2020 18:00,ITA,19,Sicilia,88,Ragusa,RG,36.92509198,14.73069891,0,
611,28-02-2020 18:00,ITA,19,Sicilia,89,Siracusa,SR,37.05991687,15.29333182,0,
612,28-02-2020 18:00,ITA,19,Sicilia,81,Trapani,TP,38.01850065,12.51365684,0,
613,28-02-2020 18:00,ITA,19,Sicilia,994,In fase di definizione/aggiornamento,,0,0,0,
614,28-02-2020 18:00,ITA,9,Toscana,51,Arezzo,AR,43.46642752,11.88228844,0,
615,28-02-2020 18:00,ITA,9,Toscana,48,Firenze,FI,43.76923077,11.25588885,7,
616,28-02-2020 18:00,ITA,9,Toscana,53,Grosseto,GR,42.76026758,11.11356398,0,
617,28-02-2020 18:00,ITA,9,Toscana,49,Livorno,LI,43.55234873,10.3086781,0,
618,28-02-2020 18:00,ITA,9,Toscana,46,Lucca,LU,43.84432283,10.50151366,0,
619,28-02-2020 18:00,ITA,9,Toscana,45,Massa Carrara,MS,44.03674425,10.14173829,0,
620,28-02-2020 18:00,ITA,9,Toscana,50,Pisa,PI,43.71553206,10.40127259,0,
621,28-02-2020 18:00,ITA,9,Toscana,47,Pistoia,PT,43.933465,10.91734146,1,
622,28-02-2020 18:00,ITA,9,Toscana,100,Prato,PO,43.88062274,11.09703315,0,
623,28-02-2020 18:00,ITA,9,Toscana,52,Siena,SI,43.31816374,11.33190988,0,
624,28-02-2020 18:00,ITA,9,Toscana,995,In fase di definizione/aggiornamento,,0,0,0,
625,28-02-2020 18:00,ITA,4,P.A. Trento,22,Trento,TN,46.06893511,11.12123097,0,
626,28-02-2020 18:00,ITA,4,P.A. Trento,996,In fase di definizione/aggiornamento,,0,0,0,
627,28-02-2020 18:00,ITA,10,Umbria,54,Perugia,PG,43.10675841,12.38824698,0,
628,28-02-2020 18:00,ITA,10,Umbria,55,Terni,TR,42.56071258,12.6466875,0,
629,28-02-2020 18:00,ITA,10,Umbria,997,In fase di definizione/aggiornamento,,0,0,0,
630,28-02-2020 18:00,ITA,2,Valle d'Aosta,7,Aosta,AO,45.73750286,7.320149366,0,
631,28-02-2020 18:00,ITA,2,Valle d'Aosta,998,In fase di definizione/aggiornamento,,0,0,0,
632,28-02-2020 18:00,ITA,5,Veneto,25,Belluno,BL,46.13837528,12.21704167,0,
633,28-02-2020 18:00,ITA,5,Veneto,28,Padova,PD,45.40692987,11.87608718,68,
634,28-02-2020 18:00,ITA,5,Veneto,29,Rovigo,RO,45.07107289,11.79007,0,
635,28-02-2020 18:00,ITA,5,Veneto,26,Treviso,TV,45.66754571,12.24507363,23,
636,28-02-2020 18:00,ITA,5,Veneto,27,Venezia,VE,45.43490485,12.33845213,15,
637,28-02-2020 18:00,ITA,5,Veneto,23,Verona,VR,45.43839046,10.99352685,0,
638,28-02-2020 18:00,ITA,5,Veneto,24,Vicenza,VI,45.547497,11.54597109,3,
639,28-02-2020 18:00,ITA,5,Veneto,999,In fase di definizione/aggiornamento,,0,0,42,
640,29-02-2020 17:00,ITA,13,Abruzzo,69,Chieti,CH,42.35103167,14.16754574,0,
641,29-02-2020 17:00,ITA,13,Abruzzo,66,L'Aquila,AQ,42.35122196,13.39843823,0,
642,29-02-2020 17:00,ITA,13,Abruzzo,68,Pescara,PE,42.46458398,14.21364822,0,
643,29-02-2020 17:00,ITA,13,Abruzzo,67,Teramo,TE,42.6589177,13.70439971,2,
644,29-02-2020 17:00,ITA,13,Abruzzo,979,In fase di definizione/aggiornamento,,0,0,0,
645,29-02-2020 17:00,ITA,17,Basilicata,77,Matera,MT,40.66751177,16.59792442,0,
646,29-02-2020 17:00,ITA,17,Basilicata,76,Potenza,PZ,40.63947052,15.80514834,0,
647,29-02-2020 17:00,ITA,17,Basilicata,980,In fase di definizione/aggiornamento,,0,0,0,
648,29-02-2020 17:00,ITA,4,P.A. Bolzano,21,Bolzano,BZ,46.49933453,11.35662422,1,
649,29-02-2020 17:00,ITA,4,P.A. Bolzano,981,In fase di definizione/aggiornamento,,0,0,0,
650,29-02-2020 17:00,ITA,18,Calabria,79,Catanzaro,CZ,38.90597598,16.59440194,0,
651,29-02-2020 17:00,ITA,18,Calabria,78,Cosenza,CS,39.29308681,16.25609692,1,
652,29-02-2020 17:00,ITA,18,Calabria,101,Crotone,KR,39.08036878,17.12538864,0,
653,29-02-2020 17:00,ITA,18,Calabria,80,Reggio di Calabria,RC,38.10922769,15.6434527,0,
654,29-02-2020 17:00,ITA,18,Calabria,102,Vibo Valentia,VV,38.67624147,16.10157414,0,
655,29-02-2020 17:00,ITA,18,Calabria,982,In fase di definizione/aggiornamento,,0,0,0,
656,29-02-2020 17:00,ITA,15,Campania,64,Avellino,AV,40.91404699,14.79528803,0,
657,29-02-2020 17:00,ITA,15,Campania,62,Benevento,BN,41.12969987,14.78151683,0,
658,29-02-2020 17:00,ITA,15,Campania,61,Caserta,CE,41.07465878,14.33240464,0,
659,29-02-2020 17:00,ITA,15,Campania,63,Napoli,,40.83956555,14.25084984,13,
660,29-02-2020 17:00,ITA,15,Campania,65,Salerno,SA,40.67821961,14.7594026,0,
661,29-02-2020 17:00,ITA,15,Campania,983,In fase di definizione/aggiornamento,,0,0,0,
662,29-02-2020 17:00,ITA,8,Emilia Romagna,37,Bologna,BO,44.49436681,11.3417208,2,
663,29-02-2020 17:00,ITA,8,Emilia Romagna,38,Ferrara,FE,44.83599085,11.61868934,0,
664,29-02-2020 17:00,ITA,8,Emilia Romagna,40,Forlì-Cesena,FC,44.22268559,12.04068608,0,
665,29-02-2020 17:00,ITA,8,Emilia Romagna,36,Modena,MO,44.64600009,10.92615487,22,
666,29-02-2020 17:00,ITA,8,Emilia Romagna,34,Parma,PR,44.80107394,10.32834985,35,
667,29-02-2020 17:00,ITA,8,Emilia Romagna,33,Piacenza,PC,45.05193462,9.692632596,138,
668,29-02-2020 17:00,ITA,8,Emilia Romagna,39,Ravenna,RA,44.41722493,12.19913936,1,
669,29-02-2020 17:00,ITA,8,Emilia Romagna,35,Reggio nell'Emilia,RE,44.69735289,10.63007973,4,
670,29-02-2020 17:00,ITA,8,Emilia Romagna,99,Rimini,RN,44.06090087,12.5656295,15,
671,29-02-2020 17:00,ITA,8,Emilia Romagna,984,In fase di definizione/aggiornamento,,0,0,0,
672,29-02-2020 17:00,ITA,6,Friuli Venezia Giulia,31,Gorizia,GO,45.94149817,13.62212502,0,
673,29-02-2020 17:00,ITA,6,Friuli Venezia Giulia,93,Pordenone,PN,45.95443546,12.66002909,0,
674,29-02-2020 17:00,ITA,6,Friuli Venezia Giulia,32,Trieste,TS,45.6494354,13.76813649,0,
675,29-02-2020 17:00,ITA,6,Friuli Venezia Giulia,30,Udine,UD,46.06255516,13.2348383,0,
676,29-02-2020 17:00,ITA,6,Friuli Venezia Giulia,985,In fase di definizione/aggiornamento,,0,0,0,
677,29-02-2020 17:00,ITA,12,Lazio,60,Frosinone,FR,41.63964569,13.35117161,0,
678,29-02-2020 17:00,ITA,12,Lazio,59,Latina,LT,41.46759465,12.90368482,0,
679,29-02-2020 17:00,ITA,12,Lazio,57,Rieti,RI,42.40488444,12.86205939,0,
680,29-02-2020 17:00,ITA,12,Lazio,58,Roma,RM,41.89277044,12.48366722,6,
681,29-02-2020 17:00,ITA,12,Lazio,56,Viterbo,VT,42.4173828,12.10473416,0,
682,29-02-2020 17:00,ITA,12,Lazio,986,In fase di definizione/aggiornamento,,0,0,0,
683,29-02-2020 17:00,ITA,7,Liguria,10,Genova,GE,44.41149314,8.9326992,0,
684,29-02-2020 17:00,ITA,7,Liguria,8,Imperia,IM,43.88570648,8.027850298,0,
685,29-02-2020 17:00,ITA,7,Liguria,11,La Spezia,SP,44.10704991,9.8281897,1,
686,29-02-2020 17:00,ITA,7,Liguria,9,Savona,SV,44.30750461,8.481108654,41,
687,29-02-2020 17:00,ITA,7,Liguria,987,In fase di definizione/aggiornamento,,0,0,0,
688,29-02-2020 17:00,ITA,3,Lombardia,16,Bergamo,BG,45.69441368,9.668424528,110,
689,29-02-2020 17:00,ITA,3,Lombardia,17,Brescia,BS,45.53993052,10.21910323,14,
690,29-02-2020 17:00,ITA,3,Lombardia,13,Como,CO,45.8099912,9.085159546,1,
691,29-02-2020 17:00,ITA,3,Lombardia,19,Cremona,CR,45.13336675,10.02420865,136,
692,29-02-2020 17:00,ITA,3,Lombardia,97,Lecco,LC,45.85575781,9.393392246,0,
693,29-02-2020 17:00,ITA,3,Lombardia,98,Lodi,LO,45.31440693,9.503720769,237,
694,29-02-2020 17:00,ITA,3,Lombardia,20,Mantova,MN,45.15726772,10.79277363,1,
695,29-02-2020 17:00,ITA,3,Lombardia,15,Milano,MI,45.46679409,9.190347404,30,
696,29-02-2020 17:00,ITA,3,Lombardia,108,Monza e della Brianza,MB,45.58439043,9.273582472,6,
697,29-02-2020 17:00,ITA,3,Lombardia,18,Pavia,PV,45.18509264,9.160157191,55,
698,29-02-2020 17:00,ITA,3,Lombardia,14,Sondrio,SO,46.17099261,9.87147489,3,
699,29-02-2020 17:00,ITA,3,Lombardia,12,Varese,VA,45.81701677,8.822868344,4,
700,29-02-2020 17:00,ITA,3,Lombardia,988,In fase di definizione/aggiornamento,,0,0,18,
701,29-02-2020 17:00,ITA,11,Marche,42,Ancona,AN,43.61675973,13.5188753,0,
702,29-02-2020 17:00,ITA,11,Marche,44,Ascoli Piceno,AP,42.85322304,13.57691127,0,
703,29-02-2020 17:00,ITA,11,Marche,109,Fermo,FM,43.16058534,13.71839535,0,
704,29-02-2020 17:00,ITA,11,Marche,43,Macerata,MC,43.30023926,13.45307182,0,
705,29-02-2020 17:00,ITA,11,Marche,41,Pesaro e Urbino,PU,43.91014021,12.91345989,11,
706,29-02-2020 17:00,ITA,11,Marche,989,In fase di definizione/aggiornamento,,0,0,0,
707,29-02-2020 17:00,ITA,14,Molise,70,Campobasso,CB,41.55774754,14.65916051,0,
708,29-02-2020 17:00,ITA,14,Molise,94,Isernia,IS,41.58800826,14.22575407,0,
709,29-02-2020 17:00,ITA,14,Molise,990,In fase di definizione/aggiornamento,,0,0,0,
710,29-02-2020 17:00,ITA,1,Piemonte,6,Alessandria,AL,44.91297351,8.615401155,0,
711,29-02-2020 17:00,ITA,1,Piemonte,5,Asti,AT,44.89912921,8.204142547,0,
712,29-02-2020 17:00,ITA,1,Piemonte,96,Biella,BI,45.5665112,8.054082167,0,
713,29-02-2020 17:00,ITA,1,Piemonte,4,Cuneo,CN,44.39329625,7.551171632,0,
714,29-02-2020 17:00,ITA,1,Piemonte,3,Novara,NO,45.44588506,8.621915884,0,
715,29-02-2020 17:00,ITA,1,Piemonte,1,Torino,TO,45.0732745,7.680687483,11,
716,29-02-2020 17:00,ITA,1,Piemonte,103,Verbano-Cusio-Ossola,VB,45.9214455,8.551078753,0,
717,29-02-2020 17:00,ITA,1,Piemonte,2,Vercelli,VC,45.32398135,8.423234312,0,
718,29-02-2020 17:00,ITA,1,Piemonte,991,In fase di definizione/aggiornamento,,0,0,0,
719,29-02-2020 17:00,ITA,16,Puglia,72,Bari,BA,41.12559576,16.86736689,0,
720,29-02-2020 17:00,ITA,16,Puglia,110,Barletta-Andria-Trani,BT,41.22705039,16.29520432,0,
721,29-02-2020 17:00,ITA,16,Puglia,74,Brindisi,BR,40.63848545,17.94601575,0,
722,29-02-2020 17:00,ITA,16,Puglia,71,Foggia,FG,41.46226865,15.54305094,0,
723,29-02-2020 17:00,ITA,16,Puglia,75,Lecce,LE,40.35354285,18.1718973,0,
724,29-02-2020 17:00,ITA,16,Puglia,73,Taranto,TA,40.47354739,17.23237181,3,
725,29-02-2020 17:00,ITA,16,Puglia,992,In fase di definizione/aggiornamento,,0,0,0,
726,29-02-2020 17:00,ITA,20,Sardegna,92,Cagliari,CA,39.21531192,9.110616306,0,
727,29-02-2020 17:00,ITA,20,Sardegna,91,Nuoro,NU,40.32318834,9.330296393,0,
728,29-02-2020 17:00,ITA,20,Sardegna,95,Oristano,OR,39.90381075,8.591183151,0,
729,29-02-2020 17:00,ITA,20,Sardegna,90,Sassari,SS,40.72667657,8.559667131,0,
730,29-02-2020 17:00,ITA,20,Sardegna,111,Sud Sardegna,SU,39.16641462,8.526242676,0,
731,29-02-2020 17:00,ITA,20,Sardegna,993,In fase di definizione/aggiornamento,,0,0,0,
732,29-02-2020 17:00,ITA,19,Sicilia,84,Agrigento,AG,37.30971088,13.5845749,0,
733,29-02-2020 17:00,ITA,19,Sicilia,85,Caltanissetta,CL,37.49213171,14.06184973,0,
734,29-02-2020 17:00,ITA,19,Sicilia,87,Catania,CT,37.50287803,15.08704691,1,
735,29-02-2020 17:00,ITA,19,Sicilia,86,Enna,EN,37.56705701,14.27909375,0,
736,29-02-2020 17:00,ITA,19,Sicilia,83,Messina,ME,38.19395845,15.55572302,0,
737,29-02-2020 17:00,ITA,19,Sicilia,82,Palermo,PA,38.11569725,13.3623567,3,
738,29-02-2020 17:00,ITA,19,Sicilia,88,Ragusa,RG,36.92509198,14.73069891,0,
739,29-02-2020 17:00,ITA,19,Sicilia,89,Siracusa,SR,37.05991687,15.29333182,0,
740,29-02-2020 17:00,ITA,19,Sicilia,81,Trapani,TP,38.01850065,12.51365684,0,
741,29-02-2020 17:00,ITA,19,Sicilia,994,In fase di definizione/aggiornamento,,0,0,0,
742,29-02-2020 17:00,ITA,9,Toscana,51,Arezzo,AR,43.46642752,11.88228844,0,
743,29-02-2020 17:00,ITA,9,Toscana,48,Firenze,FI,43.76923077,11.25588885,5,
744,29-02-2020 17:00,ITA,9,Toscana,53,Grosseto,GR,42.76026758,11.11356398,0,
745,29-02-2020 17:00,ITA,9,Toscana,49,Livorno,LI,43.55234873,10.3086781,0,
746,29-02-2020 17:00,ITA,9,Toscana,46,Lucca,LU,43.84432283,10.50151366,1,
747,29-02-2020 17:00,ITA,9,Toscana,45,Massa Carrara,MS,44.03674425,10.14173829,1,
748,29-02-2020 17:00,ITA,9,Toscana,50,Pisa,PI,43.71553206,10.40127259,0,
749,29-02-2020 17:00,ITA,9,Toscana,47,Pistoia,PT,43.933465,10.91734146,1,
750,29-02-2020 17:00,ITA,9,Toscana,100,Prato,PO,43.88062274,11.09703315,0,
751,29-02-2020 17:00,ITA,9,Toscana,52,Siena,SI,43.31816374,11.33190988,3,
752,29-02-2020 17:00,ITA,9,Toscana,995,In fase di definizione/aggiornamento,,0,0,0,
753,29-02-2020 17:00,ITA,4,P.A. Trento,22,Trento,TN,46.06893511,11.12123097,0,
754,29-02-2020 17:00,ITA,4,P.A. Trento,996,In fase di definizione/aggiornamento,,0,0,0,
755,29-02-2020 17:00,ITA,10,Umbria,54,Perugia,PG,43.10675841,12.38824698,0,
756,29-02-2020 17:00,ITA,10,Umbria,55,Terni,TR,42.56071258,12.6466875,0,
757,29-02-2020 17:00,ITA,10,Umbria,997,In fase di definizione/aggiornamento,,0,0,0,
758,29-02-2020 17:00,ITA,2,Valle d'Aosta,7,Aosta,AO,45.73750286,7.320149366,0,
759,29-02-2020 17:00,ITA,2,Valle d'Aosta,998,In fase di definizione/aggiornamento,,0,0,0,
760,29-02-2020 17:00,ITA,5,Veneto,25,Belluno,BL,46.13837528,12.21704167,0,
761,29-02-2020 17:00,ITA,5,Veneto,28,Padova,PD,45.40692987,11.87608718,81,
762,29-02-2020 17:00,ITA,5,Veneto,29,Rovigo,RO,45.07107289,11.79007,0,
763,29-02-2020 17:00,ITA,5,Veneto,26,Treviso,TV,45.66754571,12.24507363,35,
764,29-02-2020 17:00,ITA,5,Veneto,27,Venezia,VE,45.43490485,12.33845213,19,
765,29-02-2020 17:00,ITA,5,Veneto,23,Verona,VR,45.43839046,10.99352685,0,
766,29-02-2020 17:00,ITA,5,Veneto,24,Vicenza,VI,45.547497,11.54597109,3,
767,29-02-2020 17:00,ITA,5,Veneto,999,In fase di definizione/aggiornamento,,0,0,53,
768,01-03-2020 17:00,ITA,13,Abruzzo,69,Chieti,CH,42.35103167,14.16754574,0,
769,01-03-2020 17:00,ITA,13,Abruzzo,66,L'Aquila,AQ,42.35122196,13.39843823,0,
770,01-03-2020 17:00,ITA,13,Abruzzo,68,Pescara,PE,42.46458398,14.21364822,0,
771,01-03-2020 17:00,ITA,13,Abruzzo,67,Teramo,TE,42.6589177,13.70439971,5,
772,01-03-2020 17:00,ITA,13,Abruzzo,979,In fase di definizione/aggiornamento,,0,0,0,
773,01-03-2020 17:00,ITA,17,Basilicata,77,Matera,MT,40.66751177,16.59792442,0,
774,01-03-2020 17:00,ITA,17,Basilicata,76,Potenza,PZ,40.63947052,15.80514834,0,
775,01-03-2020 17:00,ITA,17,Basilicata,980,In fase di definizione/aggiornamento,,0,0,0,
776,01-03-2020 17:00,ITA,4,P.A. Bolzano,21,Bolzano,BZ,46.49933453,11.35662422,1,
777,01-03-2020 17:00,ITA,4,P.A. Bolzano,981,In fase di definizione/aggiornamento,,0,0,0,
778,01-03-2020 17:00,ITA,18,Calabria,79,Catanzaro,CZ,38.90597598,16.59440194,0,
779,01-03-2020 17:00,ITA,18,Calabria,78,Cosenza,CS,39.29308681,16.25609692,1,
780,01-03-2020 17:00,ITA,18,Calabria,101,Crotone,KR,39.08036878,17.12538864,0,
781,01-03-2020 17:00,ITA,18,Calabria,80,Reggio di Calabria,RC,38.10922769,15.6434527,0,
782,01-03-2020 17:00,ITA,18,Calabria,102,Vibo Valentia,VV,38.67624147,16.10157414,0,
783,01-03-2020 17:00,ITA,18,Calabria,982,In fase di definizione/aggiornamento,,0,0,0,
784,01-03-2020 17:00,ITA,15,Campania,64,Avellino,AV,40.91404699,14.79528803,0,
785,01-03-2020 17:00,ITA,15,Campania,62,Benevento,BN,41.12969987,14.78151683,0,
786,01-03-2020 17:00,ITA,15,Campania,61,Caserta,CE,41.07465878,14.33240464,0,
787,01-03-2020 17:00,ITA,15,Campania,63,Napoli,,40.83956555,14.25084984,17,
788,01-03-2020 17:00,ITA,15,Campania,65,Salerno,SA,40.67821961,14.7594026,0,
789,01-03-2020 17:00,ITA,15,Campania,983,In fase di definizione/aggiornamento,,0,0,0,
790,01-03-2020 17:00,ITA,8,Emilia Romagna,37,Bologna,BO,44.49436681,11.3417208,2,
791,01-03-2020 17:00,ITA,8,Emilia Romagna,38,Ferrara,FE,44.83599085,11.61868934,0,
792,01-03-2020 17:00,ITA,8,Emilia Romagna,40,Forlì-Cesena,FC,44.22268559,12.04068608,1,
793,01-03-2020 17:00,ITA,8,Emilia Romagna,36,Modena,MO,44.64600009,10.92615487,24,
794,01-03-2020 17:00,ITA,8,Emilia Romagna,34,Parma,PR,44.80107394,10.32834985,59,
795,01-03-2020 17:00,ITA,8,Emilia Romagna,33,Piacenza,PC,45.05193462,9.692632596,174,
796,01-03-2020 17:00,ITA,8,Emilia Romagna,39,Ravenna,RA,44.41722493,12.19913936,2,
797,01-03-2020 17:00,ITA,8,Emilia Romagna,35,Reggio nell'Emilia,RE,44.69735289,10.63007973,7,
798,01-03-2020 17:00,ITA,8,Emilia Romagna,99,Rimini,RN,44.06090087,12.5656295,16,
799,01-03-2020 17:00,ITA,8,Emilia Romagna,984,In fase di definizione/aggiornamento,,0,0,0,
800,01-03-2020 17:00,ITA,6,Friuli Venezia Giulia,31,Gorizia,GO,45.94149817,13.62212502,0,
801,01-03-2020 17:00,ITA,6,Friuli Venezia Giulia,93,Pordenone,PN,45.95443546,12.66002909,0,
802,01-03-2020 17:00,ITA,6,Friuli Venezia Giulia,32,Trieste,TS,45.6494354,13.76813649,6,
803,01-03-2020 17:00,ITA,6,Friuli Venezia Giulia,30,Udine,UD,46.06255516,13.2348383,0,
804,01-03-2020 17:00,ITA,6,Friuli Venezia Giulia,985,In fase di definizione/aggiornamento,,0,0,0,
805,01-03-2020 17:00,ITA,12,Lazio,60,Frosinone,FR,41.63964569,13.35117161,0,
806,01-03-2020 17:00,ITA,12,Lazio,59,Latina,LT,41.46759465,12.90368482,0,
807,01-03-2020 17:00,ITA,12,Lazio,57,Rieti,RI,42.40488444,12.86205939,0,
808,01-03-2020 17:00,ITA,12,Lazio,58,Roma,RM,41.89277044,12.48366722,6,
809,01-03-2020 17:00,ITA,12,Lazio,56,Viterbo,VT,42.4173828,12.10473416,0,
810,01-03-2020 17:00,ITA,12,Lazio,986,In fase di definizione/aggiornamento,,0,0,0,
811,01-03-2020 17:00,ITA,7,Liguria,10,Genova,GE,44.41149314,8.9326992,1,
812,01-03-2020 17:00,ITA,7,Liguria,8,Imperia,IM,43.88570648,8.027850298,1,
813,01-03-2020 17:00,ITA,7,Liguria,11,La Spezia,SP,44.10704991,9.8281897,1,
814,01-03-2020 17:00,ITA,7,Liguria,9,Savona,SV,44.30750461,8.481108654,19,
815,01-03-2020 17:00,ITA,7,Liguria,987,In fase di definizione/aggiornamento,,0,0,3,
816,01-03-2020 17:00,ITA,3,Lombardia,16,Bergamo,BG,45.69441368,9.668424528,209,
817,01-03-2020 17:00,ITA,3,Lombardia,17,Brescia,BS,45.53993052,10.21910323,49,
818,01-03-2020 17:00,ITA,3,Lombardia,13,Como,CO,45.8099912,9.085159546,2,
819,01-03-2020 17:00,ITA,3,Lombardia,19,Cremona,CR,45.13336675,10.02420865,214,
820,01-03-2020 17:00,ITA,3,Lombardia,97,Lecco,LC,45.85575781,9.393392246,2,
821,01-03-2020 17:00,ITA,3,Lombardia,98,Lodi,LO,45.31440693,9.503720769,344,
822,01-03-2020 17:00,ITA,3,Lombardia,20,Mantova,MN,45.15726772,10.79277363,4,
823,01-03-2020 17:00,ITA,3,Lombardia,15,Milano,MI,45.46679409,9.190347404,46,
824,01-03-2020 17:00,ITA,3,Lombardia,108,Monza e della Brianza,MB,45.58439043,9.273582472,6,
825,01-03-2020 17:00,ITA,3,Lombardia,18,Pavia,PV,45.18509264,9.160157191,78,
826,01-03-2020 17:00,ITA,3,Lombardia,14,Sondrio,SO,46.17099261,9.87147489,3,
827,01-03-2020 17:00,ITA,3,Lombardia,12,Varese,VA,45.81701677,8.822868344,4,
828,01-03-2020 17:00,ITA,3,Lombardia,988,In fase di definizione/aggiornamento,,0,0,23,
829,01-03-2020 17:00,ITA,11,Marche,42,Ancona,AN,43.61675973,13.5188753,1,
830,01-03-2020 17:00,ITA,11,Marche,44,Ascoli Piceno,AP,42.85322304,13.57691127,0,
831,01-03-2020 17:00,ITA,11,Marche,109,Fermo,FM,43.16058534,13.71839535,0,
832,01-03-2020 17:00,ITA,11,Marche,43,Macerata,MC,43.30023926,13.45307182,0,
833,01-03-2020 17:00,ITA,11,Marche,41,Pesaro e Urbino,PU,43.91014021,12.91345989,24,
834,01-03-2020 17:00,ITA,11,Marche,989,In fase di definizione/aggiornamento,,0,0,0,
835,01-03-2020 17:00,ITA,14,Molise,70,Campobasso,CB,41.55774754,14.65916051,0,
836,01-03-2020 17:00,ITA,14,Molise,94,Isernia,IS,41.58800826,14.22575407,0,
837,01-03-2020 17:00,ITA,14,Molise,990,In fase di definizione/aggiornamento,,0,0,0,
838,01-03-2020 17:00,ITA,1,Piemonte,6,Alessandria,AL,44.91297351,8.615401155,0,
839,01-03-2020 17:00,ITA,1,Piemonte,5,Asti,AT,44.89912921,8.204142547,0,
840,01-03-2020 17:00,ITA,1,Piemonte,96,Biella,BI,45.5665112,8.054082167,0,
841,01-03-2020 17:00,ITA,1,Piemonte,4,Cuneo,CN,44.39329625,7.551171632,0,
842,01-03-2020 17:00,ITA,1,Piemonte,3,Novara,NO,45.44588506,8.621915884,0,
843,01-03-2020 17:00,ITA,1,Piemonte,1,Torino,TO,45.0732745,7.680687483,49,
844,01-03-2020 17:00,ITA,1,Piemonte,103,Verbano-Cusio-Ossola,VB,45.9214455,8.551078753,0,
845,01-03-2020 17:00,ITA,1,Piemonte,2,Vercelli,VC,45.32398135,8.423234312,0,
846,01-03-2020 17:00,ITA,1,Piemonte,991,In fase di definizione/aggiornamento,,0,0,0,
847,01-03-2020 17:00,ITA,16,Puglia,72,Bari,BA,41.12559576,16.86736689,0,
848,01-03-2020 17:00,ITA,16,Puglia,110,Barletta-Andria-Trani,BT,41.22705039,16.29520432,0,
849,01-03-2020 17:00,ITA,16,Puglia,74,Brindisi,BR,40.63848545,17.94601575,0,
850,01-03-2020 17:00,ITA,16,Puglia,71,Foggia,FG,41.46226865,15.54305094,0,
851,01-03-2020 17:00,ITA,16,Puglia,75,Lecce,LE,40.35354285,18.1718973,0,
852,01-03-2020 17:00,ITA,16,Puglia,73,Taranto,TA,40.47354739,17.23237181,3,
853,01-03-2020 17:00,ITA,16,Puglia,992,In fase di definizione/aggiornamento,,0,0,0,
854,01-03-2020 17:00,ITA,20,Sardegna,92,Cagliari,CA,39.21531192,9.110616306,0,
855,01-03-2020 17:00,ITA,20,Sardegna,91,Nuoro,NU,40.32318834,9.330296393,0,
856,01-03-2020 17:00,ITA,20,Sardegna,95,Oristano,OR,39.90381075,8.591183151,0,
857,01-03-2020 17:00,ITA,20,Sardegna,90,Sassari,SS,40.72667657,8.559667131,0,
858,01-03-2020 17:00,ITA,20,Sardegna,111,Sud Sardegna,SU,39.16641462,8.526242676,0,
859,01-03-2020 17:00,ITA,20,Sardegna,993,In fase di definizione/aggiornamento,,0,0,0,
860,01-03-2020 17:00,ITA,19,Sicilia,84,Agrigento,AG,37.30971088,13.5845749,0,
861,01-03-2020 17:00,ITA,19,Sicilia,85,Caltanissetta,CL,37.49213171,14.06184973,0,
862,01-03-2020 17:00,ITA,19,Sicilia,87,Catania,CT,37.50287803,15.08704691,1,
863,01-03-2020 17:00,ITA,19,Sicilia,86,Enna,EN,37.56705701,14.27909375,0,
864,01-03-2020 17:00,ITA,19,Sicilia,83,Messina,ME,38.19395845,15.55572302,0,
865,01-03-2020 17:00,ITA,19,Sicilia,82,Palermo,PA,38.11569725,13.3623567,3,
866,01-03-2020 17:00,ITA,19,Sicilia,88,Ragusa,RG,36.92509198,14.73069891,0,
867,01-03-2020 17:00,ITA,19,Sicilia,89,Siracusa,SR,37.05991687,15.29333182,0,
868,01-03-2020 17:00,ITA,19,Sicilia,81,Trapani,TP,38.01850065,12.51365684,0,
869,01-03-2020 17:00,ITA,19,Sicilia,994,In fase di definizione/aggiornamento,,0,0,5,
870,01-03-2020 17:00,ITA,9,Toscana,51,Arezzo,AR,43.46642752,11.88228844,0,
871,01-03-2020 17:00,ITA,9,Toscana,48,Firenze,FI,43.76923077,11.25588885,5,
872,01-03-2020 17:00,ITA,9,Toscana,53,Grosseto,GR,42.76026758,11.11356398,0,
873,01-03-2020 17:00,ITA,9,Toscana,49,Livorno,LI,43.55234873,10.3086781,0,
874,01-03-2020 17:00,ITA,9,Toscana,46,Lucca,LU,43.84432283,10.50151366,1,
875,01-03-2020 17:00,ITA,9,Toscana,45,Massa Carrara,MS,44.03674425,10.14173829,3,
876,01-03-2020 17:00,ITA,9,Toscana,50,Pisa,PI,43.71553206,10.40127259,0,
877,01-03-2020 17:00,ITA,9,Toscana,47,Pistoia,PT,43.933465,10.91734146,1,
878,01-03-2020 17:00,ITA,9,Toscana,100,Prato,PO,43.88062274,11.09703315,0,
879,01-03-2020 17:00,ITA,9,Toscana,52,Siena,SI,43.31816374,11.33190988,3,
880,01-03-2020 17:00,ITA,9,Toscana,995,In fase di definizione/aggiornamento,,0,0,0,
881,01-03-2020 17:00,ITA,4,P.A. Trento,22,Trento,TN,46.06893511,11.12123097,0,
882,01-03-2020 17:00,ITA,4,P.A. Trento,996,In fase di definizione/aggiornamento,,0,0,0,
883,01-03-2020 17:00,ITA,10,Umbria,54,Perugia,PG,43.10675841,12.38824698,2,
884,01-03-2020 17:00,ITA,10,Umbria,55,Terni,TR,42.56071258,12.6466875,0,
885,01-03-2020 17:00,ITA,10,Umbria,997,In fase di definizione/aggiornamento,,0,0,0,
886,01-03-2020 17:00,ITA,2,Valle d'Aosta,7,Aosta,AO,45.73750286,7.320149366,0,
887,01-03-2020 17:00,ITA,2,Valle d'Aosta,998,In fase di definizione/aggiornamento,,0,0,0,
888,01-03-2020 17:00,ITA,5,Veneto,25,Belluno,BL,46.13837528,12.21704167,0,
889,01-03-2020 17:00,ITA,5,Veneto,28,Padova,PD,45.40692987,11.87608718,105,
890,01-03-2020 17:00,ITA,5,Veneto,29,Rovigo,RO,45.07107289,11.79007,0,
891,01-03-2020 17:00,ITA,5,Veneto,26,Treviso,TV,45.66754571,12.24507363,43,
892,01-03-2020 17:00,ITA,5,Veneto,27,Venezia,VE,45.43490485,12.33845213,24,
893,01-03-2020 17:00,ITA,5,Veneto,23,Verona,VR,45.43839046,10.99352685,2,
894,01-03-2020 17:00,ITA,5,Veneto,24,Vicenza,VI,45.547497,11.54597109,3,
895,01-03-2020 17:00,ITA,5,Veneto,999,In fase di definizione/aggiornamento,,0,0,86,
896,02-03-2020 17:00,ITA,13,Abruzzo,69,Chieti,CH,42.35103167,14.16754574,0,
897,02-03-2020 17:00,ITA,13,Abruzzo,66,L'Aquila,AQ,42.35122196,13.39843823,0,
898,02-03-2020 17:00,ITA,13,Abruzzo,68,Pescara,PE,42.46458398,14.21364822,0,
899,02-03-2020 17:00,ITA,13,Abruzzo,67,Teramo,TE,42.6589177,13.70439971,5,
900,02-03-2020 17:00,ITA,13,Abruzzo,979,In fase di definizione/aggiornamento,,0,0,0,
901,02-03-2020 17:00,ITA,17,Basilicata,77,Matera,MT,40.66751177,16.59792442,0,
902,02-03-2020 17:00,ITA,17,Basilicata,76,Potenza,PZ,40.63947052,15.80514834,0,
903,02-03-2020 17:00,ITA,17,Basilicata,980,In fase di definizione/aggiornamento,,0,0,0,
904,02-03-2020 17:00,ITA,4,P.A. Bolzano,21,Bolzano,BZ,46.49933453,11.35662422,1,
905,02-03-2020 17:00,ITA,4,P.A. Bolzano,981,In fase di definizione/aggiornamento,,0,0,0,
906,02-03-2020 17:00,ITA,18,Calabria,79,Catanzaro,CZ,38.90597598,16.59440194,0,
907,02-03-2020 17:00,ITA,18,Calabria,78,Cosenza,CS,39.29308681,16.25609692,1,
908,02-03-2020 17:00,ITA,18,Calabria,101,Crotone,KR,39.08036878,17.12538864,0,
909,02-03-2020 17:00,ITA,18,Calabria,80,Reggio di Calabria,RC,38.10922769,15.6434527,0,
910,02-03-2020 17:00,ITA,18,Calabria,102,Vibo Valentia,VV,38.67624147,16.10157414,0,
911,02-03-2020 17:00,ITA,18,Calabria,982,In fase di definizione/aggiornamento,,0,0,0,
912,02-03-2020 17:00,ITA,15,Campania,64,Avellino,AV,40.91404699,14.79528803,0,
913,02-03-2020 17:00,ITA,15,Campania,62,Benevento,BN,41.12969987,14.78151683,0,
914,02-03-2020 17:00,ITA,15,Campania,61,Caserta,CE,41.07465878,14.33240464,0,
915,02-03-2020 17:00,ITA,15,Campania,63,Napoli,,40.83956555,14.25084984,17,
916,02-03-2020 17:00,ITA,15,Campania,65,Salerno,SA,40.67821961,14.7594026,0,
917,02-03-2020 17:00,ITA,15,Campania,983,In fase di definizione/aggiornamento,,0,0,0,
918,02-03-2020 17:00,ITA,8,Emilia Romagna,37,Bologna,BO,44.49436681,11.3417208,3,
919,02-03-2020 17:00,ITA,8,Emilia Romagna,38,Ferrara,FE,44.83599085,11.61868934,0,
920,02-03-2020 17:00,ITA,8,Emilia Romagna,40,Forlì-Cesena,FC,44.22268559,12.04068608,1,
921,02-03-2020 17:00,ITA,8,Emilia Romagna,36,Modena,MO,44.64600009,10.92615487,29,
922,02-03-2020 17:00,ITA,8,Emilia Romagna,34,Parma,PR,44.80107394,10.32834985,61,
923,02-03-2020 17:00,ITA,8,Emilia Romagna,33,Piacenza,PC,45.05193462,9.692632596,212,
924,02-03-2020 17:00,ITA,8,Emilia Romagna,39,Ravenna,RA,44.41722493,12.19913936,2,
925,02-03-2020 17:00,ITA,8,Emilia Romagna,35,Reggio nell'Emilia,RE,44.69735289,10.63007973,8,
926,02-03-2020 17:00,ITA,8,Emilia Romagna,99,Rimini,RN,44.06090087,12.5656295,19,
927,02-03-2020 17:00,ITA,8,Emilia Romagna,984,In fase di definizione/aggiornamento,,0,0,0,
928,02-03-2020 17:00,ITA,6,Friuli Venezia Giulia,31,Gorizia,GO,45.94149817,13.62212502,0,
929,02-03-2020 17:00,ITA,6,Friuli Venezia Giulia,93,Pordenone,PN,45.95443546,12.66002909,0,
930,02-03-2020 17:00,ITA,6,Friuli Venezia Giulia,32,Trieste,TS,45.6494354,13.76813649,9,
931,02-03-2020 17:00,ITA,6,Friuli Venezia Giulia,30,Udine,UD,46.06255516,13.2348383,0,
932,02-03-2020 17:00,ITA,6,Friuli Venezia Giulia,985,In fase di definizione/aggiornamento,,0,0,0,
933,02-03-2020 17:00,ITA,12,Lazio,60,Frosinone,FR,41.63964569,13.35117161,0,
934,02-03-2020 17:00,ITA,12,Lazio,59,Latina,LT,41.46759465,12.90368482,0,
935,02-03-2020 17:00,ITA,12,Lazio,57,Rieti,RI,42.40488444,12.86205939,0,
936,02-03-2020 17:00,ITA,12,Lazio,58,Roma,RM,41.89277044,12.48366722,7,
937,02-03-2020 17:00,ITA,12,Lazio,56,Viterbo,VT,42.4173828,12.10473416,0,
938,02-03-2020 17:00,ITA,12,Lazio,986,In fase di definizione/aggiornamento,,0,0,0,
939,02-03-2020 17:00,ITA,7,Liguria,10,Genova,GE,44.41149314,8.9326992,1,
940,02-03-2020 17:00,ITA,7,Liguria,8,Imperia,IM,43.88570648,8.027850298,1,
941,02-03-2020 17:00,ITA,7,Liguria,11,La Spezia,SP,44.10704991,9.8281897,1,
942,02-03-2020 17:00,ITA,7,Liguria,9,Savona,SV,44.30750461,8.481108654,16,
943,02-03-2020 17:00,ITA,7,Liguria,987,In fase di definizione/aggiornamento,,0,0,3,
944,02-03-2020 17:00,ITA,3,Lombardia,16,Bergamo,BG,45.69441368,9.668424528,243,
945,02-03-2020 17:00,ITA,3,Lombardia,17,Brescia,BS,45.53993052,10.21910323,60,
946,02-03-2020 17:00,ITA,3,Lombardia,13,Como,CO,45.8099912,9.085159546,2,
947,02-03-2020 17:00,ITA,3,Lombardia,19,Cremona,CR,45.13336675,10.02420865,223,
948,02-03-2020 17:00,ITA,3,Lombardia,97,Lecco,LC,45.85575781,9.393392246,3,
949,02-03-2020 17:00,ITA,3,Lombardia,98,Lodi,LO,45.31440693,9.503720769,384,
950,02-03-2020 17:00,ITA,3,Lombardia,20,Mantova,MN,45.15726772,10.79277363,5,
951,02-03-2020 17:00,ITA,3,Lombardia,15,Milano,MI,45.46679409,9.190347404,58,
952,02-03-2020 17:00,ITA,3,Lombardia,108,Monza e della Brianza,MB,45.58439043,9.273582472,8,
953,02-03-2020 17:00,ITA,3,Lombardia,18,Pavia,PV,45.18509264,9.160157191,83,
954,02-03-2020 17:00,ITA,3,Lombardia,14,Sondrio,SO,46.17099261,9.87147489,3,
955,02-03-2020 17:00,ITA,3,Lombardia,12,Varese,VA,45.81701677,8.822868344,4,
956,02-03-2020 17:00,ITA,3,Lombardia,988,In fase di definizione/aggiornamento,,0,0,178,
957,02-03-2020 17:00,ITA,11,Marche,42,Ancona,AN,43.61675973,13.5188753,2,
958,02-03-2020 17:00,ITA,11,Marche,44,Ascoli Piceno,AP,42.85322304,13.57691127,0,
959,02-03-2020 17:00,ITA,11,Marche,109,Fermo,FM,43.16058534,13.71839535,0,
960,02-03-2020 17:00,ITA,11,Marche,43,Macerata,MC,43.30023926,13.45307182,0,
961,02-03-2020 17:00,ITA,11,Marche,41,Pesaro e Urbino,PU,43.91014021,12.91345989,33,
962,02-03-2020 17:00,ITA,11,Marche,989,In fase di definizione/aggiornamento,,0,0,0,
963,02-03-2020 17:00,ITA,14,Molise,70,Campobasso,CB,41.55774754,14.65916051,0,
964,02-03-2020 17:00,ITA,14,Molise,94,Isernia,IS,41.58800826,14.22575407,0,
965,02-03-2020 17:00,ITA,14,Molise,990,In fase di definizione/aggiornamento,,0,0,0,
966,02-03-2020 17:00,ITA,1,Piemonte,6,Alessandria,AL,44.91297351,8.615401155,0,
967,02-03-2020 17:00,ITA,1,Piemonte,5,Asti,AT,44.89912921,8.204142547,37,
968,02-03-2020 17:00,ITA,1,Piemonte,96,Biella,BI,45.5665112,8.054082167,0,
969,02-03-2020 17:00,ITA,1,Piemonte,4,Cuneo,CN,44.39329625,7.551171632,0,
970,02-03-2020 17:00,ITA,1,Piemonte,3,Novara,NO,45.44588506,8.621915884,3,
971,02-03-2020 17:00,ITA,1,Piemonte,1,Torino,TO,45.0732745,7.680687483,6,
972,02-03-2020 17:00,ITA,1,Piemonte,103,Verbano-Cusio-Ossola,VB,45.9214455,8.551078753,4,
973,02-03-2020 17:00,ITA,1,Piemonte,2,Vercelli,VC,45.32398135,8.423234312,1,
974,02-03-2020 17:00,ITA,1,Piemonte,991,In fase di definizione/aggiornamento,,0,0,0,
975,02-03-2020 17:00,ITA,16,Puglia,72,Bari,BA,41.12559576,16.86736689,1,
976,02-03-2020 17:00,ITA,16,Puglia,110,Barletta-Andria-Trani,BT,41.22705039,16.29520432,0,
977,02-03-2020 17:00,ITA,16,Puglia,74,Brindisi,BR,40.63848545,17.94601575,0,
978,02-03-2020 17:00,ITA,16,Puglia,71,Foggia,FG,41.46226865,15.54305094,0,
979,02-03-2020 17:00,ITA,16,Puglia,75,Lecce,LE,40.35354285,18.1718973,0,
980,02-03-2020 17:00,ITA,16,Puglia,73,Taranto,TA,40.47354739,17.23237181,3,
981,02-03-2020 17:00,ITA,16,Puglia,992,In fase di definizione/aggiornamento,,0,0,0,
982,02-03-2020 17:00,ITA,20,Sardegna,92,Cagliari,CA,39.21531192,9.110616306,0,
983,02-03-2020 17:00,ITA,20,Sardegna,91,Nuoro,NU,40.32318834,9.330296393,0,
984,02-03-2020 17:00,ITA,20,Sardegna,95,Oristano,OR,39.90381075,8.591183151,0,
985,02-03-2020 17:00,ITA,20,Sardegna,90,Sassari,SS,40.72667657,8.559667131,0,
986,02-03-2020 17:00,ITA,20,Sardegna,111,Sud Sardegna,SU,39.16641462,8.526242676,0,
987,02-03-2020 17:00,ITA,20,Sardegna,993,In fase di definizione/aggiornamento,,0,0,0,
988,02-03-2020 17:00,ITA,19,Sicilia,84,Agrigento,AG,37.30971088,13.5845749,0,
989,02-03-2020 17:00,ITA,19,Sicilia,85,Caltanissetta,CL,37.49213171,14.06184973,0,
990,02-03-2020 17:00,ITA,19,Sicilia,87,Catania,CT,37.50287803,15.08704691,1,
991,02-03-2020 17:00,ITA,19,Sicilia,86,Enna,EN,37.56705701,14.27909375,0,
992,02-03-2020 17:00,ITA,19,Sicilia,83,Messina,ME,38.19395845,15.55572302,0,
993,02-03-2020 17:00,ITA,19,Sicilia,82,Palermo,PA,38.11569725,13.3623567,3,
994,02-03-2020 17:00,ITA,19,Sicilia,88,Ragusa,RG,36.92509198,14.73069891,0,
995,02-03-2020 17:00,ITA,19,Sicilia,89,Siracusa,SR,37.05991687,15.29333182,0,
996,02-03-2020 17:00,ITA,19,Sicilia,81,Trapani,TP,38.01850065,12.51365684,0,
997,02-03-2020 17:00,ITA,19,Sicilia,994,In fase di definizione/aggiornamento,,0,0,3,
998,02-03-2020 17:00,ITA,9,Toscana,51,Arezzo,AR,43.46642752,11.88228844,1,
999,02-03-2020 17:00,ITA,9,Toscana,48,Firenze,FI,43.76923077,11.25588885,4,
1000,02-03-2020 17:00,ITA,9,Toscana,53,Grosseto,GR,42.76026758,11.11356398,0,
1001,02-03-2020 17:00,ITA,9,Toscana,49,Livorno,LI,43.55234873,10.3086781,0,
1002,02-03-2020 17:00,ITA,9,Toscana,46,Lucca,LU,43.84432283,10.50151366,1,
1003,02-03-2020 17:00,ITA,9,Toscana,45,Massa Carrara,MS,44.03674425,10.14173829,3,
1004,02-03-2020 17:00,ITA,9,Toscana,50,Pisa,PI,43.71553206,10.40127259,0,
1005,02-03-2020 17:00,ITA,9,Toscana,47,Pistoia,PT,43.933465,10.91734146,1,
1006,02-03-2020 17:00,ITA,9,Toscana,100,Prato,PO,43.88062274,11.09703315,0,
1007,02-03-2020 17:00,ITA,9,Toscana,52,Siena,SI,43.31816374,11.33190988,3,
1008,02-03-2020 17:00,ITA,9,Toscana,995,In fase di definizione/aggiornamento,,0,0,0,
1009,02-03-2020 17:00,ITA,4,P.A. Trento,22,Trento,TN,46.06893511,11.12123097,0,
1010,02-03-2020 17:00,ITA,4,P.A. Trento,996,In fase di definizione/aggiornamento,,0,0,0,
1011,02-03-2020 17:00,ITA,10,Umbria,54,Perugia,PG,43.10675841,12.38824698,1,
1012,02-03-2020 17:00,ITA,10,Umbria,55,Terni,TR,42.56071258,12.6466875,1,
1013,02-03-2020 17:00,ITA,10,Umbria,997,In fase di definizione/aggiornamento,,0,0,0,
1014,02-03-2020 17:00,ITA,2,Valle d'Aosta,7,Aosta,AO,45.73750286,7.320149366,0,
1015,02-03-2020 17:00,ITA,2,Valle d'Aosta,998,In fase di definizione/aggiornamento,,0,0,0,
1016,02-03-2020 17:00,ITA,5,Veneto,25,Belluno,BL,46.13837528,12.21704167,3,
1017,02-03-2020 17:00,ITA,5,Veneto,28,Padova,PD,45.40692987,11.87608718,135,
1018,02-03-2020 17:00,ITA,5,Veneto,29,Rovigo,RO,45.07107289,11.79007,0,
1019,02-03-2020 17:00,ITA,5,Veneto,26,Treviso,TV,45.66754571,12.24507363,72,
1020,02-03-2020 17:00,ITA,5,Veneto,27,Venezia,VE,45.43490485,12.33845213,48,
1021,02-03-2020 17:00,ITA,5,Veneto,23,Verona,VR,45.43839046,10.99352685,8,
1022,02-03-2020 17:00,ITA,5,Veneto,24,Vicenza,VI,45.547497,11.54597109,3,
1023,02-03-2020 17:00,ITA,5,Veneto,999,In fase di definizione/aggiornamento,,0,0,4,
1024,03-03-2020 17:00,ITA,13,Abruzzo,69,Chieti,CH,42.35103167,14.16754574,0,
1025,03-03-2020 17:00,ITA,13,Abruzzo,66,L'Aquila,AQ,42.35122196,13.39843823,1,
1026,03-03-2020 17:00,ITA,13,Abruzzo,68,Pescara,PE,42.46458398,14.21364822,1,
1027,03-03-2020 17:00,ITA,13,Abruzzo,67,Teramo,TE,42.6589177,13.70439971,3,
1028,03-03-2020 17:00,ITA,13,Abruzzo,979,In fase di definizione/aggiornamento,,0,0,1,
1029,03-03-2020 17:00,ITA,17,Basilicata,77,Matera,MT,40.66751177,16.59792442,0,
1030,03-03-2020 17:00,ITA,17,Basilicata,76,Potenza,PZ,40.63947052,15.80514834,1,
1031,03-03-2020 17:00,ITA,17,Basilicata,980,In fase di definizione/aggiornamento,,0,0,0,
1032,03-03-2020 17:00,ITA,4,P.A. Bolzano,21,Bolzano,BZ,46.49933453,11.35662422,1,
1033,03-03-2020 17:00,ITA,4,P.A. Bolzano,981,In fase di definizione/aggiornamento,,0,0,0,
1034,03-03-2020 17:00,ITA,18,Calabria,79,Catanzaro,CZ,38.90597598,16.59440194,0,
1035,03-03-2020 17:00,ITA,18,Calabria,78,Cosenza,CS,39.29308681,16.25609692,1,
1036,03-03-2020 17:00,ITA,18,Calabria,101,Crotone,KR,39.08036878,17.12538864,0,
1037,03-03-2020 17:00,ITA,18,Calabria,80,Reggio di Calabria,RC,38.10922769,15.6434527,0,
1038,03-03-2020 17:00,ITA,18,Calabria,102,Vibo Valentia,VV,38.67624147,16.10157414,0,
1039,03-03-2020 17:00,ITA,18,Calabria,982,In fase di definizione/aggiornamento,,0,0,0,
1040,03-03-2020 17:00,ITA,15,Campania,64,Avellino,AV,40.91404699,14.79528803,0,
1041,03-03-2020 17:00,ITA,15,Campania,62,Benevento,BN,41.12969987,14.78151683,0,
1042,03-03-2020 17:00,ITA,15,Campania,61,Caserta,CE,41.07465878,14.33240464,0,
1043,03-03-2020 17:00,ITA,15,Campania,63,Napoli,,40.83956555,14.25084984,30,
1044,03-03-2020 17:00,ITA,15,Campania,65,Salerno,SA,40.67821961,14.7594026,0,
1045,03-03-2020 17:00,ITA,15,Campania,983,In fase di definizione/aggiornamento,,0,0,0,
1046,03-03-2020 17:00,ITA,8,Emilia Romagna,37,Bologna,BO,44.49436681,11.3417208,6,
1047,03-03-2020 17:00,ITA,8,Emilia Romagna,38,Ferrara,FE,44.83599085,11.61868934,0,
1048,03-03-2020 17:00,ITA,8,Emilia Romagna,40,Forlì-Cesena,FC,44.22268559,12.04068608,1,
1049,03-03-2020 17:00,ITA,8,Emilia Romagna,36,Modena,MO,44.64600009,10.92615487,33,
1050,03-03-2020 17:00,ITA,8,Emilia Romagna,34,Parma,PR,44.80107394,10.32834985,84,
1051,03-03-2020 17:00,ITA,8,Emilia Romagna,33,Piacenza,PC,45.05193462,9.692632596,256,
1052,03-03-2020 17:00,ITA,8,Emilia Romagna,39,Ravenna,RA,44.41722493,12.19913936,2,
1053,03-03-2020 17:00,ITA,8,Emilia Romagna,35,Reggio nell'Emilia,RE,44.69735289,10.63007973,14,
1054,03-03-2020 17:00,ITA,8,Emilia Romagna,99,Rimini,RN,44.06090087,12.5656295,24,
1055,03-03-2020 17:00,ITA,8,Emilia Romagna,984,In fase di definizione/aggiornamento,,0,0,0,
1056,03-03-2020 17:00,ITA,6,Friuli Venezia Giulia,31,Gorizia,GO,45.94149817,13.62212502,3,
1057,03-03-2020 17:00,ITA,6,Friuli Venezia Giulia,93,Pordenone,PN,45.95443546,12.66002909,0,
1058,03-03-2020 17:00,ITA,6,Friuli Venezia Giulia,32,Trieste,TS,45.6494354,13.76813649,2,
1059,03-03-2020 17:00,ITA,6,Friuli Venezia Giulia,30,Udine,UD,46.06255516,13.2348383,8,
1060,03-03-2020 17:00,ITA,6,Friuli Venezia Giulia,985,In fase di definizione/aggiornamento,,0,0,0,
1061,03-03-2020 17:00,ITA,12,Lazio,60,Frosinone,FR,41.63964569,13.35117161,0,
1062,03-03-2020 17:00,ITA,12,Lazio,59,Latina,LT,41.46759465,12.90368482,0,
1063,03-03-2020 17:00,ITA,12,Lazio,57,Rieti,RI,42.40488444,12.86205939,0,
1064,03-03-2020 17:00,ITA,12,Lazio,58,Roma,RM,41.89277044,12.48366722,14,
1065,03-03-2020 17:00,ITA,12,Lazio,56,Viterbo,VT,42.4173828,12.10473416,0,
1066,03-03-2020 17:00,ITA,12,Lazio,986,In fase di definizione/aggiornamento,,0,0,0,
1067,03-03-2020 17:00,ITA,7,Liguria,10,Genova,GE,44.41149314,8.9326992,1,
1068,03-03-2020 17:00,ITA,7,Liguria,8,Imperia,IM,43.88570648,8.027850298,2,
1069,03-03-2020 17:00,ITA,7,Liguria,11,La Spezia,SP,44.10704991,9.8281897,1,
1070,03-03-2020 17:00,ITA,7,Liguria,9,Savona,SV,44.30750461,8.481108654,20,
1071,03-03-2020 17:00,ITA,7,Liguria,987,In fase di definizione/aggiornamento,,0,0,0,
1072,03-03-2020 17:00,ITA,3,Lombardia,16,Bergamo,BG,45.69441368,9.668424528,372,
1073,03-03-2020 17:00,ITA,3,Lombardia,17,Brescia,BS,45.53993052,10.21910323,86,
1074,03-03-2020 17:00,ITA,3,Lombardia,13,Como,CO,45.8099912,9.085159546,4,
1075,03-03-2020 17:00,ITA,3,Lombardia,19,Cremona,CR,45.13336675,10.02420865,287,
1076,03-03-2020 17:00,ITA,3,Lombardia,97,Lecco,LC,45.85575781,9.393392246,4,
1077,03-03-2020 17:00,ITA,3,Lombardia,98,Lodi,LO,45.31440693,9.503720769,482,
1078,03-03-2020 17:00,ITA,3,Lombardia,20,Mantova,MN,45.15726772,10.79277363,15,
1079,03-03-2020 17:00,ITA,3,Lombardia,15,Milano,MI,45.46679409,9.190347404,93,
1080,03-03-2020 17:00,ITA,3,Lombardia,108,Monza e della Brianza,MB,45.58439043,9.273582472,9,
1081,03-03-2020 17:00,ITA,3,Lombardia,18,Pavia,PV,45.18509264,9.160157191,122,
1082,03-03-2020 17:00,ITA,3,Lombardia,14,Sondrio,SO,46.17099261,9.87147489,3,
1083,03-03-2020 17:00,ITA,3,Lombardia,12,Varese,VA,45.81701677,8.822868344,7,
1084,03-03-2020 17:00,ITA,3,Lombardia,988,In fase di definizione/aggiornamento,,0,0,36,
1085,03-03-2020 17:00,ITA,11,Marche,42,Ancona,AN,43.61675973,13.5188753,5,
1086,03-03-2020 17:00,ITA,11,Marche,44,Ascoli Piceno,AP,42.85322304,13.57691127,0,
1087,03-03-2020 17:00,ITA,11,Marche,109,Fermo,FM,43.16058534,13.71839535,0,
1088,03-03-2020 17:00,ITA,11,Marche,43,Macerata,MC,43.30023926,13.45307182,1,
1089,03-03-2020 17:00,ITA,11,Marche,41,Pesaro e Urbino,PU,43.91014021,12.91345989,55,
1090,03-03-2020 17:00,ITA,11,Marche,989,In fase di definizione/aggiornamento,,0,0,0,
1091,03-03-2020 17:00,ITA,14,Molise,70,Campobasso,CB,41.55774754,14.65916051,3,
1092,03-03-2020 17:00,ITA,14,Molise,94,Isernia,IS,41.58800826,14.22575407,0,
1093,03-03-2020 17:00,ITA,14,Molise,990,In fase di definizione/aggiornamento,,0,0,0,
1094,03-03-2020 17:00,ITA,1,Piemonte,6,Alessandria,AL,44.91297351,8.615401155,1,
1095,03-03-2020 17:00,ITA,1,Piemonte,5,Asti,AT,44.89912921,8.204142547,40,
1096,03-03-2020 17:00,ITA,1,Piemonte,96,Biella,BI,45.5665112,8.054082167,0,
1097,03-03-2020 17:00,ITA,1,Piemonte,4,Cuneo,CN,44.39329625,7.551171632,0,
1098,03-03-2020 17:00,ITA,1,Piemonte,3,Novara,NO,45.44588506,8.621915884,3,
1099,03-03-2020 17:00,ITA,1,Piemonte,1,Torino,TO,45.0732745,7.680687483,7,
1100,03-03-2020 17:00,ITA,1,Piemonte,103,Verbano-Cusio-Ossola,VB,45.9214455,8.551078753,4,
1101,03-03-2020 17:00,ITA,1,Piemonte,2,Vercelli,VC,45.32398135,8.423234312,1,
1102,03-03-2020 17:00,ITA,1,Piemonte,991,In fase di definizione/aggiornamento,,0,0,0,
1103,03-03-2020 17:00,ITA,16,Puglia,72,Bari,BA,41.12559576,16.86736689,2,
1104,03-03-2020 17:00,ITA,16,Puglia,110,Barletta-Andria-Trani,BT,41.22705039,16.29520432,0,
1105,03-03-2020 17:00,ITA,16,Puglia,74,Brindisi,BR,40.63848545,17.94601575,0,
1106,03-03-2020 17:00,ITA,16,Puglia,71,Foggia,FG,41.46226865,15.54305094,1,
1107,03-03-2020 17:00,ITA,16,Puglia,75,Lecce,LE,40.35354285,18.1718973,0,
1108,03-03-2020 17:00,ITA,16,Puglia,73,Taranto,TA,40.47354739,17.23237181,3,
1109,03-03-2020 17:00,ITA,16,Puglia,992,In fase di definizione/aggiornamento,,0,0,0,
1110,03-03-2020 17:00,ITA,20,Sardegna,92,Cagliari,CA,39.21531192,9.110616306,1,
1111,03-03-2020 17:00,ITA,20,Sardegna,91,Nuoro,NU,40.32318834,9.330296393,0,
1112,03-03-2020 17:00,ITA,20,Sardegna,95,Oristano,OR,39.90381075,8.591183151,0,
1113,03-03-2020 17:00,ITA,20,Sardegna,90,Sassari,SS,40.72667657,8.559667131,0,
1114,03-03-2020 17:00,ITA,20,Sardegna,111,Sud Sardegna,SU,39.16641462,8.526242676,0,
1115,03-03-2020 17:00,ITA,20,Sardegna,993,In fase di definizione/aggiornamento,,0,0,0,
1116,03-03-2020 17:00,ITA,19,Sicilia,84,Agrigento,AG,37.30971088,13.5845749,0,
1117,03-03-2020 17:00,ITA,19,Sicilia,85,Caltanissetta,CL,37.49213171,14.06184973,0,
1118,03-03-2020 17:00,ITA,19,Sicilia,87,Catania,CT,37.50287803,15.08704691,1,
1119,03-03-2020 17:00,ITA,19,Sicilia,86,Enna,EN,37.56705701,14.27909375,0,
1120,03-03-2020 17:00,ITA,19,Sicilia,83,Messina,ME,38.19395845,15.55572302,0,
1121,03-03-2020 17:00,ITA,19,Sicilia,82,Palermo,PA,38.11569725,13.3623567,3,
1122,03-03-2020 17:00,ITA,19,Sicilia,88,Ragusa,RG,36.92509198,14.73069891,0,
1123,03-03-2020 17:00,ITA,19,Sicilia,89,Siracusa,SR,37.05991687,15.29333182,0,
1124,03-03-2020 17:00,ITA,19,Sicilia,81,Trapani,TP,38.01850065,12.51365684,0,
1125,03-03-2020 17:00,ITA,19,Sicilia,994,In fase di definizione/aggiornamento,,0,0,3,
1126,03-03-2020 17:00,ITA,9,Toscana,51,Arezzo,AR,43.46642752,11.88228844,2,
1127,03-03-2020 17:00,ITA,9,Toscana,48,Firenze,FI,43.76923077,11.25588885,7,
1128,03-03-2020 17:00,ITA,9,Toscana,53,Grosseto,GR,42.76026758,11.11356398,0,
1129,03-03-2020 17:00,ITA,9,Toscana,49,Livorno,LI,43.55234873,10.3086781,0,
1130,03-03-2020 17:00,ITA,9,Toscana,46,Lucca,LU,43.84432283,10.50151366,3,
1131,03-03-2020 17:00,ITA,9,Toscana,45,Massa Carrara,MS,44.03674425,10.14173829,3,
1132,03-03-2020 17:00,ITA,9,Toscana,50,Pisa,PI,43.71553206,10.40127259,0,
1133,03-03-2020 17:00,ITA,9,Toscana,47,Pistoia,PT,43.933465,10.91734146,1,
1134,03-03-2020 17:00,ITA,9,Toscana,100,Prato,PO,43.88062274,11.09703315,0,
1135,03-03-2020 17:00,ITA,9,Toscana,52,Siena,SI,43.31816374,11.33190988,3,
1136,03-03-2020 17:00,ITA,9,Toscana,995,In fase di definizione/aggiornamento,,0,0,0,
1137,03-03-2020 17:00,ITA,4,P.A. Trento,22,Trento,TN,46.06893511,11.12123097,4,
1138,03-03-2020 17:00,ITA,4,P.A. Trento,996,In fase di definizione/aggiornamento,,0,0,0,
1139,03-03-2020 17:00,ITA,10,Umbria,54,Perugia,PG,43.10675841,12.38824698,1,
1140,03-03-2020 17:00,ITA,10,Umbria,55,Terni,TR,42.56071258,12.6466875,1,
1141,03-03-2020 17:00,ITA,10,Umbria,997,In fase di definizione/aggiornamento,,0,0,6,
1142,03-03-2020 17:00,ITA,2,Valle d'Aosta,7,Aosta,AO,45.73750286,7.320149366,0,
1143,03-03-2020 17:00,ITA,2,Valle d'Aosta,998,In fase di definizione/aggiornamento,,0,0,0,
1144,03-03-2020 17:00,ITA,5,Veneto,25,Belluno,BL,46.13837528,12.21704167,5,
1145,03-03-2020 17:00,ITA,5,Veneto,28,Padova,PD,45.40692987,11.87608718,144,
1146,03-03-2020 17:00,ITA,5,Veneto,29,Rovigo,RO,45.07107289,11.79007,1,
1147,03-03-2020 17:00,ITA,5,Veneto,26,Treviso,TV,45.66754571,12.24507363,82,
1148,03-03-2020 17:00,ITA,5,Veneto,27,Venezia,VE,45.43490485,12.33845213,48,
1149,03-03-2020 17:00,ITA,5,Veneto,23,Verona,VR,45.43839046,10.99352685,17,
1150,03-03-2020 17:00,ITA,5,Veneto,24,Vicenza,VI,45.547497,11.54597109,5,
1151,03-03-2020 17:00,ITA,5,Veneto,999,In fase di definizione/aggiornamento,,0,0,5,
1152,04-03-2020 17:00,ITA,13,Abruzzo,69,Chieti,CH,42.35103167,14.16754574,0,
1153,04-03-2020 17:00,ITA,13,Abruzzo,66,L'Aquila,AQ,42.35122196,13.39843823,1,
1154,04-03-2020 17:00,ITA,13,Abruzzo,68,Pescara,PE,42.46458398,14.21364822,1,
1155,04-03-2020 17:00,ITA,13,Abruzzo,67,Teramo,TE,42.6589177,13.70439971,3,
1156,04-03-2020 17:00,ITA,13,Abruzzo,979,In fase di definizione/aggiornamento,,0,0,2,
1157,04-03-2020 17:00,ITA,17,Basilicata,77,Matera,MT,40.66751177,16.59792442,0,
1158,04-03-2020 17:00,ITA,17,Basilicata,76,Potenza,PZ,40.63947052,15.80514834,1,
1159,04-03-2020 17:00,ITA,17,Basilicata,980,In fase di definizione/aggiornamento,,0,0,0,
1160,04-03-2020 17:00,ITA,4,P.A. Bolzano,21,Bolzano,BZ,46.49933453,11.35662422,1,
1161,04-03-2020 17:00,ITA,4,P.A. Bolzano,981,In fase di definizione/aggiornamento,,0,0,0,
1162,04-03-2020 17:00,ITA,18,Calabria,79,Catanzaro,CZ,38.90597598,16.59440194,0,
1163,04-03-2020 17:00,ITA,18,Calabria,78,Cosenza,CS,39.29308681,16.25609692,1,
1164,04-03-2020 17:00,ITA,18,Calabria,101,Crotone,KR,39.08036878,17.12538864,0,
1165,04-03-2020 17:00,ITA,18,Calabria,80,Reggio di Calabria,RC,38.10922769,15.6434527,0,
1166,04-03-2020 17:00,ITA,18,Calabria,102,Vibo Valentia,VV,38.67624147,16.10157414,0,
1167,04-03-2020 17:00,ITA,18,Calabria,982,In fase di definizione/aggiornamento,,0,0,0,
1168,04-03-2020 17:00,ITA,15,Campania,64,Avellino,AV,40.91404699,14.79528803,0,
1169,04-03-2020 17:00,ITA,15,Campania,62,Benevento,BN,41.12969987,14.78151683,0,
1170,04-03-2020 17:00,ITA,15,Campania,61,Caserta,CE,41.07465878,14.33240464,0,
1171,04-03-2020 17:00,ITA,15,Campania,63,Napoli,,40.83956555,14.25084984,17,
1172,04-03-2020 17:00,ITA,15,Campania,65,Salerno,SA,40.67821961,14.7594026,0,
1173,04-03-2020 17:00,ITA,15,Campania,983,In fase di definizione/aggiornamento,,0,0,14,
1174,04-03-2020 17:00,ITA,8,Emilia Romagna,37,Bologna,BO,44.49436681,11.3417208,11,
1175,04-03-2020 17:00,ITA,8,Emilia Romagna,38,Ferrara,FE,44.83599085,11.61868934,0,
1176,04-03-2020 17:00,ITA,8,Emilia Romagna,40,Forlì-Cesena,FC,44.22268559,12.04068608,2,
1177,04-03-2020 17:00,ITA,8,Emilia Romagna,36,Modena,MO,44.64600009,10.92615487,41,
1178,04-03-2020 17:00,ITA,8,Emilia Romagna,34,Parma,PR,44.80107394,10.32834985,115,
1179,04-03-2020 17:00,ITA,8,Emilia Romagna,33,Piacenza,PC,45.05193462,9.692632596,319,
1180,04-03-2020 17:00,ITA,8,Emilia Romagna,39,Ravenna,RA,44.41722493,12.19913936,2,
1181,04-03-2020 17:00,ITA,8,Emilia Romagna,35,Reggio nell'Emilia,RE,44.69735289,10.63007973,20,
1182,04-03-2020 17:00,ITA,8,Emilia Romagna,99,Rimini,RN,44.06090087,12.5656295,33,
1183,04-03-2020 17:00,ITA,8,Emilia Romagna,984,In fase di definizione/aggiornamento,,0,0,1,
1184,04-03-2020 17:00,ITA,6,Friuli Venezia Giulia,31,Gorizia,GO,45.94149817,13.62212502,5,
1185,04-03-2020 17:00,ITA,6,Friuli Venezia Giulia,93,Pordenone,PN,45.95443546,12.66002909,0,
1186,04-03-2020 17:00,ITA,6,Friuli Venezia Giulia,32,Trieste,TS,45.6494354,13.76813649,5,
1187,04-03-2020 17:00,ITA,6,Friuli Venezia Giulia,30,Udine,UD,46.06255516,13.2348383,8,
1188,04-03-2020 17:00,ITA,6,Friuli Venezia Giulia,985,In fase di definizione/aggiornamento,,0,0,0,
1189,04-03-2020 17:00,ITA,12,Lazio,60,Frosinone,FR,41.63964569,13.35117161,1,
1190,04-03-2020 17:00,ITA,12,Lazio,59,Latina,LT,41.46759465,12.90368482,0,
1191,04-03-2020 17:00,ITA,12,Lazio,57,Rieti,RI,42.40488444,12.86205939,0,
1192,04-03-2020 17:00,ITA,12,Lazio,58,Roma,RM,41.89277044,12.48366722,29,
1193,04-03-2020 17:00,ITA,12,Lazio,56,Viterbo,VT,42.4173828,12.10473416,0,
1194,04-03-2020 17:00,ITA,12,Lazio,986,In fase di definizione/aggiornamento,,0,0,0,
1195,04-03-2020 17:00,ITA,7,Liguria,10,Genova,GE,44.41149314,8.9326992,1,
1196,04-03-2020 17:00,ITA,7,Liguria,8,Imperia,IM,43.88570648,8.027850298,2,
1197,04-03-2020 17:00,ITA,7,Liguria,11,La Spezia,SP,44.10704991,9.8281897,1,
1198,04-03-2020 17:00,ITA,7,Liguria,9,Savona,SV,44.30750461,8.481108654,19,
1199,04-03-2020 17:00,ITA,7,Liguria,987,In fase di definizione/aggiornamento,,0,0,3,
1200,04-03-2020 17:00,ITA,3,Lombardia,16,Bergamo,BG,45.69441368,9.668424528,423,
1201,04-03-2020 17:00,ITA,3,Lombardia,17,Brescia,BS,45.53993052,10.21910323,127,
1202,04-03-2020 17:00,ITA,3,Lombardia,13,Como,CO,45.8099912,9.085159546,5,
1203,04-03-2020 17:00,ITA,3,Lombardia,19,Cremona,CR,45.13336675,10.02420865,333,
1204,04-03-2020 17:00,ITA,3,Lombardia,97,Lecco,LC,45.85575781,9.393392246,5,
1205,04-03-2020 17:00,ITA,3,Lombardia,98,Lodi,LO,45.31440693,9.503720769,559,
1206,04-03-2020 17:00,ITA,3,Lombardia,20,Mantova,MN,45.15726772,10.79277363,22,
1207,04-03-2020 17:00,ITA,3,Lombardia,15,Milano,MI,45.46679409,9.190347404,145,
1208,04-03-2020 17:00,ITA,3,Lombardia,108,Monza e della Brianza,MB,45.58439043,9.273582472,11,
1209,04-03-2020 17:00,ITA,3,Lombardia,18,Pavia,PV,45.18509264,9.160157191,126,
1210,04-03-2020 17:00,ITA,3,Lombardia,14,Sondrio,SO,46.17099261,9.87147489,4,
1211,04-03-2020 17:00,ITA,3,Lombardia,12,Varese,VA,45.81701677,8.822868344,11,
1212,04-03-2020 17:00,ITA,3,Lombardia,988,In fase di definizione/aggiornamento,,0,0,49,
1213,04-03-2020 17:00,ITA,11,Marche,42,Ancona,AN,43.61675973,13.5188753,9,
1214,04-03-2020 17:00,ITA,11,Marche,44,Ascoli Piceno,AP,42.85322304,13.57691127,0,
1215,04-03-2020 17:00,ITA,11,Marche,109,Fermo,FM,43.16058534,13.71839535,1,
1216,04-03-2020 17:00,ITA,11,Marche,43,Macerata,MC,43.30023926,13.45307182,2,
1217,04-03-2020 17:00,ITA,11,Marche,41,Pesaro e Urbino,PU,43.91014021,12.91345989,72,
1218,04-03-2020 17:00,ITA,11,Marche,989,In fase di definizione/aggiornamento,,0,0,0,
1219,04-03-2020 17:00,ITA,14,Molise,70,Campobasso,CB,41.55774754,14.65916051,3,
1220,04-03-2020 17:00,ITA,14,Molise,94,Isernia,IS,41.58800826,14.22575407,0,
1221,04-03-2020 17:00,ITA,14,Molise,990,In fase di definizione/aggiornamento,,0,0,0,
1222,04-03-2020 17:00,ITA,1,Piemonte,6,Alessandria,AL,44.91297351,8.615401155,16,
1223,04-03-2020 17:00,ITA,1,Piemonte,5,Asti,AT,44.89912921,8.204142547,41,
1224,04-03-2020 17:00,ITA,1,Piemonte,96,Biella,BI,45.5665112,8.054082167,0,
1225,04-03-2020 17:00,ITA,1,Piemonte,4,Cuneo,CN,44.39329625,7.551171632,0,
1226,04-03-2020 17:00,ITA,1,Piemonte,3,Novara,NO,45.44588506,8.621915884,3,
1227,04-03-2020 17:00,ITA,1,Piemonte,1,Torino,TO,45.0732745,7.680687483,11,
1228,04-03-2020 17:00,ITA,1,Piemonte,103,Verbano-Cusio-Ossola,VB,45.9214455,8.551078753,5,
1229,04-03-2020 17:00,ITA,1,Piemonte,2,Vercelli,VC,45.32398135,8.423234312,3,
1230,04-03-2020 17:00,ITA,1,Piemonte,991,In fase di definizione/aggiornamento,,0,0,3,
1231,04-03-2020 17:00,ITA,16,Puglia,72,Bari,BA,41.12559576,16.86736689,2,
1232,04-03-2020 17:00,ITA,16,Puglia,110,Barletta-Andria-Trani,BT,41.22705039,16.29520432,1,
1233,04-03-2020 17:00,ITA,16,Puglia,74,Brindisi,BR,40.63848545,17.94601575,0,
1234,04-03-2020 17:00,ITA,16,Puglia,71,Foggia,FG,41.46226865,15.54305094,2,
